[{"address": "Технопарк им.Попова", "lat": 55.751587, "lon": 48.752445, "source": "8_innopolis"}, {"address": "Технопарк им.Лобачевского", "lat": 55.752194, "lon": 48.749498, "source": "8_innopolis"}, {"address": "Университет Иннополис", "lat": 55.753898, "lon": 48.74321, "source": "8_innopolis"}, {"address": "Спорткомплекс", "lat": 55.751467, "lon": 48.742433, "source": "8_innopolis"}, {"address": "Набережные Челны ул. 8 3", "lat": 55.7436283, "lon": 52.3958229, "source": "2_chelny"}, {"address": "Набережные Челны ул. 20 комплекс 9/б", "lat": 55.7436283, "lon": 52.3958229, "source": "2_chelny"}, {"address": "Набережные Челны ул. 18 9", "lat": 55.7436283, "lon": 52.3958229, "source": "2_chelny"}, {"address": "Набережные Челны ул. им н.в.лемаева пл 14", "lat": 55.7436283, "lon": 52.3958229, "source": "2_chelny"}, {"address": "Набережные Челны ул. зяб16 3", "lat": 55.6967322, "lon": 52.3482258, "source": "2_chelny"}, {"address": "Набережные Челны ул. автозаводский пр-кт 8", "lat": 55.7499878, "lon": 52.440002, "source": "2_chelny"}, {"address": "Набережные Челны ул. аделя кутуя 7", "lat": 55.762242, "lon": 52.456221, "source": "2_chelny"}, {"address": "Набережные Челны ул. школьный б-р 7", "lat": 55.746325, "lon": 52.408381, "source": "2_chelny"}, {"address": "Набережные Челны ул. им н.в.лемаева пл 16/3", "lat": 55.7436283, "lon": 52.3958229, "source": "2_chelny"}, {"address": "Набережные Челны ул. 03 8", "lat": 55.7436283, "lon": 52.3958229, "source": "2_chelny"}, {"address": "Набережные Челны ул. 40 3/а", "lat": 55.7436283, "lon": 52.3958229, "source": "2_chelny"}, {"address": "Набережные Челны ул. набережночелнинский пр-кт 62", "lat": 55.71738, "lon": 52.37165, "source": "2_chelny"}, {"address": "Набережные Челны ул. казанский пр-кт 208", "lat": 55.68461, "lon": 52.349314, "source": "2_chelny"}, {"address": "Набережные Челны ул. 07 24", "lat": 55.7436283, "lon": 52.3958229, "source": "2_chelny"}, {"address": "Набережные Челны ул. 28 8", "lat": 55.7436283, "lon": 52.3958229, "source": "2_chelny"}, {"address": "Набережные Челны ул. зяб17 8", "lat": 55.6967322, "lon": 52.3482258, "source": "2_chelny"}, {"address": "Набережные Челны ул. химиков пр-кт 32/а", "lat": 55.228479, "lon": 48.9038363, "source": "2_chelny"}, {"address": "Набережные Челны ул. хасана туфана пр-кт 62/в", "lat": 55.746887, "lon": 52.379345, "source": "2_chelny"}, {"address": "Набережные Челны ул. хасана туфана пр-кт 62/в", "lat": 55.746887, "lon": 52.379345, "source": "2_chelny"}, {"address": "Набережные Челны ул. 09 1/2", "lat": 55.7436283, "lon": 52.3958229, "source": "2_chelny"}, {"address": "Набережные Челны ул. машиностроительная 12", "lat": 55.7198336, "lon": 52.411566, "source": "2_chelny"}, {"address": "Набережные Челны ул. 04 7", "lat": 55.7436283, "lon": 52.3958229, "source": "2_chelny"}, {"address": "Набережные Челны ул. 29 14", "lat": 55.7436283, "lon": 52.3958229, "source": "2_chelny"}, {"address": "Набережные Челны ул. казанский пр-кт 226/ст2", "lat": 55.690369, "lon": 52.359959, "source": "2_chelny"}, {"address": "Набережные Челны ул. раиса беляева пр-кт 17/а", "lat": 55.7359071, "lon": 52.3980603, "source": "2_chelny"}, {"address": "Набережные Челны ул. 39 14/а", "lat": 55.7436283, "lon": 52.3958229, "source": "2_chelny"}, {"address": "Набережные Челны ул. 07 19", "lat": 55.7436283, "lon": 52.3958229, "source": "2_chelny"}, {"address": "Набережные Челны ул. чулман пр-кт 61/04", "lat": 55.738647, "lon": 52.375329, "source": "2_chelny"}, {"address": "Набережные Челны ул. промышленная 45/3/2", "lat": 55.691212, "lon": 52.455549, "source": "2_chelny"}, {"address": "Набережные Челны ул. 47 6/а", "lat": 55.7436283, "lon": 52.3958229, "source": "2_chelny"}, {"address": "Набережные Челны ул. хасана туфана пр-кт 14", "lat": 55.74187, "lon": 52.41393, "source": "2_chelny"}, {"address": "Набережные Челны ул. чулман пр-кт 1/в", "lat": 55.752623, "lon": 52.390852, "source": "2_chelny"}, {"address": "Набережные Челны ул. им габдуллы тукая наб 1", "lat": 55.674032, "lon": 52.293565, "source": "2_chelny"}, {"address": "Набережные Челны ул. мира пр-кт 12/а", "lat": 55.7266402, "lon": 52.3891243, "source": "2_chelny"}, {"address": "Набережные Челны ул. 18 10", "lat": 55.7436283, "lon": 52.3958229, "source": "2_chelny"}, {"address": "Набережные Челны ул. вахитова пр-кт 13/д", "lat": 55.7454852, "lon": 52.4224125, "source": "2_chelny"}, {"address": "Набережные Челны ул. в.гостева 7/а", "lat": 55.679498, "lon": 52.324706, "source": "2_chelny"}, {"address": "Набережные Челны ул. зяб17а 1", "lat": 55.6967322, "lon": 52.3482258, "source": "2_chelny"}, {"address": "Набережные Челны ул. 07 20/м", "lat": 55.7436283, "lon": 52.3958229, "source": "2_chelny"}, {"address": "Набережные Челны ул. 54 30", "lat": 55.7436283, "lon": 52.3958229, "source": "2_chelny"}, {"address": "Набережные Челны ул. набережночелнинский пр-кт 10/б", "lat": 55.70188, "lon": 52.334529, "source": "2_chelny"}, {"address": "Набережные Челны ул. хасана туфана пр-кт 43/а", "lat": 55.743598, "lon": 52.391571, "source": "2_chelny"}, {"address": "Набережные Челны ул. яшьлек пр-кт 14", "lat": 55.761801, "lon": 52.453267, "source": "2_chelny"}, {"address": "Набережные Челны ул. 01 14", "lat": 55.7436283, "lon": 52.3958229, "source": "2_chelny"}, {"address": "Набережные Челны ул. 8 32", "lat": 55.7436283, "lon": 52.3958229, "source": "2_chelny"}, {"address": "Набережные Челны ул. чулман пр-кт 117", "lat": 55.749674, "lon": 52.383845, "source": "2_chelny"}, {"address": "Набережные Челны ул. 30 4/а", "lat": 55.7436283, "lon": 52.3958229, "source": "2_chelny"}, {"address": "Набережные Челны ул. мира пр-кт 43/а", "lat": 55.737762, "lon": 52.402084, "source": "2_chelny"}, {"address": "Набережные Челны ул. химиков пр-кт 36", "lat": 55.228479, "lon": 48.9038363, "source": "2_chelny"}, {"address": "Набережные Челны ул. зяб17 3/а", "lat": 55.6967322, "lon": 52.3482258, "source": "2_chelny"}, {"address": "Набережные Челны ул. набережночелнинский пр-кт 43/а", "lat": 55.720605, "lon": 52.374987, "source": "2_chelny"}, {"address": "Набережные Челны ул. мира пр-кт 59/е", "lat": 55.745252, "lon": 52.409487, "source": "2_chelny"}, {"address": "Набережные Челны ул. химиков пр-кт 32/а", "lat": 55.228479, "lon": 48.9038363, "source": "2_chelny"}, {"address": "Набережные Челны ул. машиностроительная 95/-", "lat": 55.7289535, "lon": 52.4292201, "source": "2_chelny"}, {"address": "Набережные Челны ул. машиностроительная 95/-", "lat": 55.7289535, "lon": 52.4292201, "source": "2_chelny"}, {"address": "Набережные Челны ул. автосборочный проезд 20", "lat": 55.7260942, "lon": 52.4580527, "source": "2_chelny"}, {"address": "Набережные Челны ул. производственный проезд 45", "lat": 55.7100862, "lon": 52.4391817, "source": "2_chelny"}, {"address": "Набережные Челны ул. автозаводский пр-кт 2", "lat": 55.747301, "lon": 52.446572, "source": "2_chelny"}, {"address": "Набережные Челны ул. академика рубаненко 4", "lat": 55.7426341, "lon": 52.4244567, "source": "2_chelny"}, {"address": "Набережные Челны ул. 07 20/а1", "lat": 55.7436283, "lon": 52.3958229, "source": "2_chelny"}, {"address": "Набережные Челны ул. гэс 10 70", "lat": 55.7436283, "lon": 52.3958229, "source": "2_chelny"}, {"address": "Набережные Челны ул. московский пр-кт 157/в", "lat": 55.743801, "lon": 52.430082, "source": "2_chelny"}, {"address": "Набережные Челны ул. хасана туфана пр-кт 43/а", "lat": 55.743598, "lon": 52.391571, "source": "2_chelny"}, {"address": "Набережные Челны ул. яшьлек пр-кт 14", "lat": 55.761801, "lon": 52.453267, "source": "2_chelny"}, {"address": "Набережные Челны ул. сююмбике 7", "lat": 55.753895, "lon": 52.411464, "source": "2_chelny"}, {"address": "Набережные Челны ул. 01 2", "lat": 55.7436283, "lon": 52.3958229, "source": "2_chelny"}, {"address": "Набережные Челны ул. производственный проезд 3", "lat": 55.698777, "lon": 52.4152331, "source": "2_chelny"}, {"address": "Набережные Челны ул. вокзальная 38/б", "lat": 55.7436283, "lon": 52.3958229, "source": "2_chelny"}, {"address": "Набережные Челны ул. тан 223/а", "lat": 55.6867369, "lon": 52.3492697, "source": "2_chelny"}, {"address": "Набережные Челны ул. 01 5/а", "lat": 55.7436283, "lon": 52.3958229, "source": "2_chelny"}, {"address": "Набережные Челны ул. чулман пр-кт 32/42а", "lat": 55.732849, "lon": 52.377297, "source": "2_chelny"}, {"address": "Набережные Челны ул. мира пр-кт 89/1", "lat": 55.7570912, "lon": 52.4304272, "source": "2_chelny"}, {"address": "Набережные Челны ул. 24 1/а", "lat": 55.7436283, "lon": 52.3958229, "source": "2_chelny"}, {"address": "Набережные Челны ул. мира пр-кт 89/1", "lat": 55.7570912, "lon": 52.4304272, "source": "2_chelny"}, {"address": "Набережные Челны ул. 41 23/а", "lat": 55.7436283, "lon": 52.3958229, "source": "2_chelny"}, {"address": "Набережные Челны ул. 52 20/а", "lat": 55.7436283, "lon": 52.3958229, "source": "2_chelny"}, {"address": "Набережные Челны ул. им мусы джалиля пр-кт 47/г", "lat": 55.6939974, "lon": 52.3080458, "source": "2_chelny"}, {"address": "Набережные Челны ул. 41 10/а", "lat": 55.7436283, "lon": 52.3958229, "source": "2_chelny"}, {"address": "Набережные Челны ул. 12 12/а", "lat": 55.7436283, "lon": 52.3958229, "source": "2_chelny"}, {"address": "Набережные Челны ул. 07 20/ж", "lat": 55.7436283, "lon": 52.3958229, "source": "2_chelny"}, {"address": "Набережные Челны ул. 19 9/а", "lat": 55.7436283, "lon": 52.3958229, "source": "2_chelny"}, {"address": "Набережные Челны ул. татарстан 15", "lat": 55.7642025, "lon": 52.4331157, "source": "2_chelny"}, {"address": "Набережные Челны ул. ш.усманова ул 39", "lat": 55.738032, "lon": 52.384817, "source": "2_chelny"}, {"address": "Набережные Челны ул. хасана туфана пр-кт 48/а", "lat": 55.746152, "lon": 52.384313, "source": "2_chelny"}, {"address": "Набережные Челны ул. 22 15/а", "lat": 55.7436283, "lon": 52.3958229, "source": "2_chelny"}, {"address": "Набережные Челны ул. зяб18 38/а", "lat": 55.6967322, "lon": 52.3482258, "source": "2_chelny"}, {"address": "Набережные Челны ул. гагарина 1", "lat": 55.6955766, "lon": 52.3062258, "source": "2_chelny"}, {"address": "Набережные Челны ул. спортивная 15", "lat": 55.697518, "lon": 52.327063, "source": "2_chelny"}, {"address": "Набережные Челны ул. 30 2/а", "lat": 55.7436283, "lon": 52.3958229, "source": "2_chelny"}, {"address": "Набережные Челны ул. мира пр-кт 88/20е", "lat": 55.7548906, "lon": 52.4314667, "source": "2_chelny"}, {"address": "Набережные Челны ул. чулман пр-кт 81/а", "lat": 55.752623, "lon": 52.390852, "source": "2_chelny"}, {"address": "Набережные Челны ул. шамиля усманова 91/41а", "lat": 55.75675, "lon": 52.402164, "source": "2_chelny"}, {"address": "Набережные Челны ул. строителей пр-кт 47/б", "lat": 55.737284, "lon": 52.411294, "source": "2_chelny"}, {"address": "Набережные Челны ул. Не определено", "lat": 55.7436283, "lon": 52.3958229, "source": "2_chelny"}, {"address": "Набережные Челны ул. мира пр-кт 18/б", "lat": 55.727145, "lon": 52.390693, "source": "2_chelny"}, {"address": "Набережные Челны ул. 02 4/а", "lat": 55.7436283, "lon": 52.3958229, "source": "2_chelny"}, {"address": "Набережные Челны ул. 26 4/а", "lat": 55.7436283, "lon": 52.3958229, "source": "2_chelny"}, {"address": "Набережные Челны ул. 41 19/б", "lat": 55.6967322, "lon": 52.3482258, "source": "2_chelny"}, {"address": "Набережные Челны ул. 49 1", "lat": 55.7436283, "lon": 52.3958229, "source": "2_chelny"}, {"address": "Набережные Челны ул. мира пр-кт 33/а", "lat": 55.732676, "lon": 52.397365, "source": "2_chelny"}, {"address": "Набережные Челны ул. строителей пр-кт 39", "lat": 55.737284, "lon": 52.411294, "source": "2_chelny"}, {"address": "Набережные Челны ул. 11 28", "lat": 55.7436283, "lon": 52.3958229, "source": "2_chelny"}, {"address": "Набережные Челны ул. сармановский тракт 23", "lat": 55.690456, "lon": 52.334548, "source": "2_chelny"}, {"address": "Набережные Челны ул. мира пр-кт 35/1", "lat": 55.7339125, "lon": 52.3990219, "source": "2_chelny"}, {"address": "Набережные Челны ул. мира пр-кт 88/5/а", "lat": 55.7548906, "lon": 52.4314667, "source": "2_chelny"}, {"address": "Набережные Челны ул. 28 8", "lat": 55.7436283, "lon": 52.3958229, "source": "2_chelny"}, {"address": "Набережные Челны ул. альметьевский тракт 2/ст3", "lat": 55.656819, "lon": 52.255629, "source": "2_chelny"}, {"address": "Набережные Челны ул. строителей пр-кт 47/б", "lat": 55.737284, "lon": 52.411294, "source": "2_chelny"}, {"address": "Набережные Челны ул. в.фоменко пр-кт 99", "lat": 55.680268, "lon": 52.327073, "source": "2_chelny"}, {"address": "Набережные Челны ул. 03 10", "lat": 55.7436283, "lon": 52.3958229, "source": "2_chelny"}, {"address": "Набережные Челны ул. чулман пр-кт 81/а", "lat": 55.752623, "lon": 52.390852, "source": "2_chelny"}, {"address": "Набережные Челны ул. 35 9/2", "lat": 55.7436283, "lon": 52.3958229, "source": "2_chelny"}, {"address": "Набережные Челны ул. 51 комплекс 1/в", "lat": 55.7436283, "lon": 52.3958229, "source": "2_chelny"}, {"address": "Набережные Челны ул. 64 2/а", "lat": 55.758813, "lon": 52.453995, "source": "2_chelny"}, {"address": "Набережные Челны ул. 40 11/а", "lat": 55.7436283, "lon": 52.3958229, "source": "2_chelny"}, {"address": "Набережные Челны ул. 02 1/б", "lat": 55.6967322, "lon": 52.3482258, "source": "2_chelny"}, {"address": "Набережные Челны ул. 03 1/а", "lat": 55.7436283, "lon": 52.3958229, "source": "2_chelny"}, {"address": "Набережные Челны ул. 04 9", "lat": 55.7436283, "lon": 52.3958229, "source": "2_chelny"}, {"address": "Набережные Челны ул. 06 1", "lat": 55.7436283, "lon": 52.3958229, "source": "2_chelny"}, {"address": "Набережные Челны ул. 18 5", "lat": 55.7436283, "lon": 52.3958229, "source": "2_chelny"}, {"address": "Набережные Челны ул. 43 2/-", "lat": 55.7436283, "lon": 52.3958229, "source": "2_chelny"}, {"address": "Набережные Челны ул. 45 13/а", "lat": 55.7436283, "lon": 52.3958229, "source": "2_chelny"}, {"address": "Набережные Челны ул. 52 20/а", "lat": 55.7436283, "lon": 52.3958229, "source": "2_chelny"}, {"address": "Набережные Челны ул. 56 12/киоск", "lat": 55.7436283, "lon": 52.3958229, "source": "2_chelny"}, {"address": "Набережные Челны ул. 58 19", "lat": 55.7436283, "lon": 52.3958229, "source": "2_chelny"}, {"address": "Набережные Челны ул. московский пр-кт 80/-", "lat": 55.722512, "lon": 52.394158, "source": "2_chelny"}, {"address": "Набережные Челны ул. сююмбике 60/28-", "lat": 55.759256, "lon": 52.422903, "source": "2_chelny"}, {"address": "Набережные Челны ул. 13 15", "lat": 55.7436283, "lon": 52.3958229, "source": "2_chelny"}, {"address": "Набережные Челны ул. баки урманче 15", "lat": 55.7768916, "lon": 52.4386039, "source": "2_chelny"}, {"address": "Набережные Челны ул. 52 а 3", "lat": 55.7436283, "lon": 52.3958229, "source": "2_chelny"}, {"address": "Набережные Челны ул. машиностроительная 92", "lat": 55.7289535, "lon": 52.4292201, "source": "2_chelny"}, {"address": "Набережные Челны ул. химиков пр-кт 45/а", "lat": 55.228479, "lon": 48.9038363, "source": "2_chelny"}, {"address": "Набережные Челны ул. химиков пр-кт 86", "lat": 55.228479, "lon": 48.9038363, "source": "2_chelny"}, {"address": "Набережные Челны ул. 41 15/а", "lat": 55.7436283, "lon": 52.3958229, "source": "2_chelny"}, {"address": "Набережные Челны ул. гэс 04 29/2", "lat": 55.7436283, "lon": 52.3958229, "source": "2_chelny"}, {"address": "Набережные Челны ул. 30 2/а", "lat": 55.7436283, "lon": 52.3958229, "source": "2_chelny"}, {"address": "Набережные Челны ул. мира пр-кт 12/б", "lat": 55.724111, "lon": 52.387835, "source": "2_chelny"}, {"address": "Набережные Челны ул. 01 9/а", "lat": 55.7436283, "lon": 52.3958229, "source": "2_chelny"}, {"address": "Набережные Челны ул. раиса беляева пр-кт 4/а", "lat": 55.726436, "lon": 52.417451, "source": "2_chelny"}, {"address": "Набережные Челны ул. 46 11/а", "lat": 55.7436283, "lon": 52.3958229, "source": "2_chelny"}, {"address": "Набережные Челны ул. строителей пр-кт 32", "lat": 55.737284, "lon": 52.411294, "source": "2_chelny"}, {"address": "Набережные Челны ул. московский пр-кт 161/в", "lat": 55.744723, "lon": 52.431753, "source": "2_chelny"}, {"address": "Набережные Челны ул. мира пр-кт 110", "lat": 55.745098, "lon": 52.411362, "source": "2_chelny"}, {"address": "Набережные Челны ул. мира пр-кт 16/б", "lat": 55.726119, "lon": 52.389358, "source": "2_chelny"}, {"address": "Набережные Челны ул. 26 23/1", "lat": 55.7436283, "lon": 52.3958229, "source": "2_chelny"}, {"address": "Набережные Челны ул. чулман пр-кт 89", "lat": 55.7577074, "lon": 52.3986551, "source": "2_chelny"}, {"address": "Набережные Челны ул. чулман пр-кт 59/а", "lat": 55.738039, "lon": 52.37762, "source": "2_chelny"}, {"address": "Набережные Челны ул. гэс 04 29", "lat": 55.7436283, "lon": 52.3958229, "source": "2_chelny"}, {"address": "Набережные Челны ул. гэс 04 29/1", "lat": 55.7436283, "lon": 52.3958229, "source": "2_chelny"}, {"address": "Набережные Челны ул. чулман пр-кт 1/а", "lat": 55.752623, "lon": 52.390852, "source": "2_chelny"}, {"address": "Набережные Челны ул. беляева ул 2/б", "lat": 55.72745, "lon": 52.41897, "source": "2_chelny"}, {"address": "Набережные Челны ул. мира пр-кт 33/б", "lat": 55.732931, "lon": 52.397854, "source": "2_chelny"}, {"address": "Набережные Челны ул. чулман пр-кт 27", "lat": 55.752623, "lon": 52.390852, "source": "2_chelny"}, {"address": "Набережные Челны ул. центральная 84/1", "lat": 55.6997935, "lon": 52.3158679, "source": "2_chelny"}, {"address": "Набережные Челны ул. вахитова пр-кт 9/а", "lat": 55.74374, "lon": 52.424889, "source": "2_chelny"}, {"address": "Набережные Челны ул. сююмбике 51/-", "lat": 55.748813, "lon": 52.400389, "source": "2_chelny"}, {"address": "Набережные Челны ул. абдуллы алиша 15", "lat": 55.7680106, "lon": 52.4568768, "source": "2_chelny"}, {"address": "Набережные Челны ул. 41 9/б", "lat": 55.6967322, "lon": 52.3482258, "source": "2_chelny"}, {"address": "Набережные Челны ул. 01 13", "lat": 55.7436283, "lon": 52.3958229, "source": "2_chelny"}, {"address": "Набережные Челны ул. камаза пр-кт 9", "lat": 55.725081, "lon": 52.438082, "source": "2_chelny"}, {"address": "Набережные Челны ул. машиностроительная 112/а", "lat": 55.7289535, "lon": 52.4292201, "source": "2_chelny"}, {"address": "Набережные Челны ул. 30 10", "lat": 55.7436283, "lon": 52.3958229, "source": "2_chelny"}, {"address": "Набережные Челны ул. набережночелнинский пр-кт 62/а", "lat": 55.71738, "lon": 52.37165, "source": "2_chelny"}, {"address": "Набережные Челны ул. казанский пр-кт 259", "lat": 55.679717, "lon": 52.33884, "source": "2_chelny"}, {"address": "Набережные Челны ул. баки урманче 7/а", "lat": 55.7768916, "lon": 52.4386039, "source": "2_chelny"}, {"address": "Набережные Челны ул. хасана туфана пр-кт 8/-", "lat": 55.739129, "lon": 52.417424, "source": "2_chelny"}, {"address": "Набережные Челны ул. шамиля усманова 56/а", "lat": 55.746907, "lon": 52.391023, "source": "2_chelny"}, {"address": "Набережные Челны ул. 18 5/а", "lat": 55.7436283, "lon": 52.3958229, "source": "2_chelny"}, {"address": "Набережные Челны ул. 30 2/а", "lat": 55.7436283, "lon": 52.3958229, "source": "2_chelny"}, {"address": "Набережные Челны ул. машиностроительная 101", "lat": 55.7289535, "lon": 52.4292201, "source": "2_chelny"}, {"address": "Набережные Челны ул. гагарина 37", "lat": 55.694973, "lon": 52.3062749, "source": "2_chelny"}, {"address": "Набережные Челны ул. дружбы народов пр-кт 4", "lat": 55.724686, "lon": 52.399906, "source": "2_chelny"}, {"address": "Набережные Челны ул. 09 4/а", "lat": 55.7436283, "lon": 52.3958229, "source": "2_chelny"}, {"address": "Набережные Челны ул. шинников пр-кт 10/в", "lat": 55.721315, "lon": 52.3378, "source": "2_chelny"}, {"address": "Набережные Челны ул. 25 2", "lat": 55.7436283, "lon": 52.3958229, "source": "2_chelny"}, {"address": "Набережные Челны ул. ш-1 3/1", "lat": 55.7335758, "lon": 52.3597346, "source": "2_chelny"}, {"address": "Набережные Челны ул. 07 20/с", "lat": 55.7436283, "lon": 52.3958229, "source": "2_chelny"}, {"address": "Набережные Челны ул. 30 2/а", "lat": 55.7436283, "lon": 52.3958229, "source": "2_chelny"}, {"address": "Набережные Челны ул. им габдуллы тукая наб 93/а", "lat": 55.698589, "lon": 52.320469, "source": "2_chelny"}, {"address": "Набережные Челны ул. мира пр-кт 18/а", "lat": 55.7273783, "lon": 52.3910897, "source": "2_chelny"}, {"address": "Набережные Челны ул. юности 16/б", "lat": 55.6772025, "lon": 52.2944311, "source": "2_chelny"}, {"address": "Набережные Челны ул. строителей пр-кт 18", "lat": 55.737726, "lon": 52.413203, "source": "2_chelny"}, {"address": "Набережные Челны ул. 01 16", "lat": 55.7436283, "lon": 52.3958229, "source": "2_chelny"}, {"address": "Набережные Челны ул. 14 5/г", "lat": 55.7436283, "lon": 52.3958229, "source": "2_chelny"}, {"address": "Набережные Челны ул. мира пр-кт 24/б", "lat": 55.732546, "lon": 52.399811, "source": "2_chelny"}, {"address": "Набережные Челны ул. яшьлек пр-кт 14", "lat": 55.761801, "lon": 52.453267, "source": "2_chelny"}, {"address": "Набережные Челны ул. академика королева 2", "lat": 55.7135427, "lon": 52.3977555, "source": "2_chelny"}, {"address": "Набережные Челны ул. нариманова 8", "lat": 55.7182305, "lon": 52.3683853, "source": "2_chelny"}, {"address": "Набережные Челны ул. мира пр-кт 38/б", "lat": 55.7352216, "lon": 52.404997, "source": "2_chelny"}, {"address": "Набережные Челны ул. юности 14", "lat": 55.6772025, "lon": 52.2944311, "source": "2_chelny"}, {"address": "Набережные Челны ул. мира пр-кт 5/б", "lat": 55.745098, "lon": 52.411362, "source": "2_chelny"}, {"address": "Набережные Челны ул. 47 35", "lat": 55.7436283, "lon": 52.3958229, "source": "2_chelny"}, {"address": "Набережные Челны ул. 47 31", "lat": 55.7436283, "lon": 52.3958229, "source": "2_chelny"}, {"address": "Набережные Челны ул. мира пр-кт 31/а/1", "lat": 55.732373, "lon": 52.396889, "source": "2_chelny"}, {"address": "Набережные Челны ул. 10 36", "lat": 55.7436283, "lon": 52.3958229, "source": "2_chelny"}, {"address": "Набережные Челны ул. 58 12/б", "lat": 55.6967322, "lon": 52.3482258, "source": "2_chelny"}, {"address": "Набережные Челны ул. комсомольская наб 34/б/ст2", "lat": 55.6939016, "lon": 52.29637, "source": "2_chelny"}, {"address": "Набережные Челны ул. мира пр-кт 24/п", "lat": 55.732546, "lon": 52.399811, "source": "2_chelny"}, {"address": "Набережные Челны ул. мира пр-кт 61/в", "lat": 55.7457615, "lon": 52.4095354, "source": "2_chelny"}, {"address": "Набережные Челны ул. сююмбике 46", "lat": 55.7548049, "lon": 52.4150062, "source": "2_chelny"}, {"address": "Набережные Челны ул. юности 20", "lat": 55.6772025, "lon": 52.2944311, "source": "2_chelny"}, {"address": "Набережные Челны ул. юности 22", "lat": 55.6772025, "lon": 52.2944311, "source": "2_chelny"}, {"address": "Набережные Челны ул. юности 7", "lat": 55.6774171, "lon": 52.2930642, "source": "2_chelny"}, {"address": "Набережные Челны ул. раскольникова 81", "lat": 55.7451691, "lon": 52.3757633, "source": "2_chelny"}, {"address": "Набережные Челны ул. корпорация хайер ул 142/2", "lat": 55.736451, "lon": 52.522109, "source": "2_chelny"}, {"address": "Набережные Челны ул. металлургическая 57/1", "lat": 55.691166, "lon": 52.494518, "source": "2_chelny"}, {"address": "Набережные Челны ул. шинников пр-кт 37", "lat": 55.7436283, "lon": 52.3958229, "source": "2_chelny"}, {"address": "Набережные Челны ул. хасана туфана пр-кт 8/а", "lat": 55.739129, "lon": 52.417424, "source": "2_chelny"}, {"address": "Набережные Челны ул. центральная 85/а", "lat": 55.6999629, "lon": 52.316783, "source": "2_chelny"}, {"address": "Набережные Челны ул. 01 12", "lat": 55.7436283, "lon": 52.3958229, "source": "2_chelny"}, {"address": "Набережные Челны ул. 01 16", "lat": 55.7436283, "lon": 52.3958229, "source": "2_chelny"}, {"address": "Набережные Челны ул. ахметшина 64", "lat": 55.7167454, "lon": 52.4011613, "source": "2_chelny"}, {"address": "Набережные Челны ул. 40 лет победы 104", "lat": 55.7378351, "lon": 52.4316318, "source": "2_chelny"}, {"address": "Набережные Челны ул. машиностроительная 111", "lat": 55.7289535, "lon": 52.4292201, "source": "2_chelny"}, {"address": "Набережные Челны ул. 01 16", "lat": 55.7436283, "lon": 52.3958229, "source": "2_chelny"}, {"address": "Набережные Челны ул. академика рубаненко 4", "lat": 55.7426341, "lon": 52.4244567, "source": "2_chelny"}, {"address": "Набережные Челны ул. им габдуллы тукая наб 48", "lat": 55.685599, "lon": 52.312196, "source": "2_chelny"}, {"address": "Набережные Челны ул. 09 4", "lat": 55.7436283, "lon": 52.3958229, "source": "2_chelny"}, {"address": "Набережные Челны ул. менделеева 35/а", "lat": 55.6935781, "lon": 52.3545361, "source": "2_chelny"}, {"address": "Набережные Челны ул. сююмбике 7", "lat": 55.753895, "lon": 52.411464, "source": "2_chelny"}, {"address": "Набережные Челны ул. химиков пр-кт 50/в", "lat": 55.228479, "lon": 48.9038363, "source": "2_chelny"}, {"address": "Набережные Челны ул. 28 8", "lat": 55.7436283, "lon": 52.3958229, "source": "2_chelny"}, {"address": "Набережные Челны ул. зяб14 12/а", "lat": 55.6967322, "lon": 52.3482258, "source": "2_chelny"}, {"address": "Набережные Челны ул. промышленная 45/3/1", "lat": 55.691212, "lon": 52.455549, "source": "2_chelny"}, {"address": "Набережные Челны ул. зяб17 2/а", "lat": 55.6967322, "lon": 52.3482258, "source": "2_chelny"}, {"address": "Набережные Челны ул. ахтубинская 8", "lat": 55.7436283, "lon": 52.3958229, "source": "2_chelny"}, {"address": "Набережные Челны ул. 14 5/г", "lat": 55.7436283, "lon": 52.3958229, "source": "2_chelny"}, {"address": "Набережные Челны ул. 35 10", "lat": 55.7436283, "lon": 52.3958229, "source": "2_chelny"}, {"address": "Набережные Челны ул. 54 6", "lat": 55.7436283, "lon": 52.3958229, "source": "2_chelny"}, {"address": "Набережные Челны ул. спортивная 4", "lat": 55.7436283, "lon": 52.3958229, "source": "2_chelny"}, {"address": "Набережные Челны ул. 40 1", "lat": 55.7436283, "lon": 52.3958229, "source": "2_chelny"}, {"address": "Набережные Челны ул. команды камаз-мастер 19", "lat": 55.750535, "lon": 52.410563, "source": "2_chelny"}, {"address": "Набережные Челны ул. чулман пр-кт 89/стр", "lat": 55.7577074, "lon": 52.3986551, "source": "2_chelny"}, {"address": "Набережные Челны ул. 27 4/а", "lat": 55.7436283, "lon": 52.3958229, "source": "2_chelny"}, {"address": "Набережные Челны ул. Не определено", "lat": 55.7436283, "lon": 52.3958229, "source": "2_chelny"}, {"address": "Набережные Челны ул. 59 23", "lat": 55.7436283, "lon": 52.3958229, "source": "2_chelny"}, {"address": "Набережные Челны ул. 40 6/в", "lat": 55.7436283, "lon": 52.3958229, "source": "2_chelny"}, {"address": "Набережные Челны ул. 01 9", "lat": 55.7436283, "lon": 52.3958229, "source": "2_chelny"}, {"address": "Набережные Челны ул. 28 14", "lat": 55.7436283, "lon": 52.3958229, "source": "2_chelny"}, {"address": "Набережные Челны ул. менделеева 31/а", "lat": 55.6935781, "lon": 52.3545361, "source": "2_chelny"}, {"address": "Набережные Челны ул. 01 12", "lat": 55.7436283, "lon": 52.3958229, "source": "2_chelny"}, {"address": "Набережные Челны ул. мира пр-кт 75/а", "lat": 55.7496336, "lon": 52.4189638, "source": "2_chelny"}, {"address": "Набережные Челны ул. сююмбике пр-кт 4/а", "lat": 55.7336856, "lon": 52.3917979, "source": "2_chelny"}, {"address": "Набережные Челны ул. 01 11", "lat": 55.7436283, "lon": 52.3958229, "source": "2_chelny"}, {"address": "Набережные Челны ул. сююмбике 40/блок8", "lat": 55.7518242, "lon": 52.4093047, "source": "2_chelny"}, {"address": "Набережные Челны ул. юности 13", "lat": 55.6772025, "lon": 52.2944311, "source": "2_chelny"}, {"address": "Набережные Челны ул. сююмбике 2/-", "lat": 55.732088, "lon": 52.3915205, "source": "2_chelny"}, {"address": "Набережные Челны ул. сююмбике 2/-", "lat": 55.732088, "lon": 52.3915205, "source": "2_chelny"}, {"address": "Набережные Челны ул. 44 20/3", "lat": 55.7436283, "lon": 52.3958229, "source": "2_chelny"}, {"address": "Набережные Челны ул. мира пр-кт 49/астр1", "lat": 55.7392493, "lon": 52.4032354, "source": "2_chelny"}, {"address": "Набережные Челны ул. набережночелнинский пр-кт 62", "lat": 55.71738, "lon": 52.37165, "source": "2_chelny"}, {"address": "Набережные Челны ул. 30 18", "lat": 55.7436283, "lon": 52.3958229, "source": "2_chelny"}, {"address": "Набережные Челны ул. 30 18", "lat": 55.7436283, "lon": 52.3958229, "source": "2_chelny"}, {"address": "Набережные Челны ул. 01 11/а", "lat": 55.7436283, "lon": 52.3958229, "source": "2_chelny"}, {"address": "Набережные Челны ул. им н.в.лемаева пл 6", "lat": 55.7268541, "lon": 52.3514136, "source": "2_chelny"}, {"address": "Набережные Челны ул. 09 4/а", "lat": 55.7436283, "lon": 52.3958229, "source": "2_chelny"}, {"address": "Набережные Челны ул. 02 18", "lat": 55.7436283, "lon": 52.3958229, "source": "2_chelny"}, {"address": "Набережные Челны ул. 44 11/а", "lat": 55.7436283, "lon": 52.3958229, "source": "2_chelny"}, {"address": "Набережные Челны ул. 49 25", "lat": 55.7436283, "lon": 52.3958229, "source": "2_chelny"}, {"address": "Набережные Челны ул. Не определено", "lat": 55.7436283, "lon": 52.3958229, "source": "2_chelny"}, {"address": "Набережные Челны ул. 30 14", "lat": 55.7436283, "lon": 52.3958229, "source": "2_chelny"}, {"address": "Набережные Челны ул. 09 43/ст1", "lat": 55.7436283, "lon": 52.3958229, "source": "2_chelny"}, {"address": "Набережные Челны ул. 09 7", "lat": 55.7436283, "lon": 52.3958229, "source": "2_chelny"}, {"address": "Набережные Челны ул. зяб17а 24/а", "lat": 55.6967322, "lon": 52.3482258, "source": "2_chelny"}, {"address": "Набережные Челны ул. мира пр-кт 89", "lat": 55.7570912, "lon": 52.4304272, "source": "2_chelny"}, {"address": "Набережные Челны ул. 30 лет победы 8", "lat": 55.7378351, "lon": 52.4316318, "source": "2_chelny"}, {"address": "Набережные Челны ул. 14 6", "lat": 55.7436283, "lon": 52.3958229, "source": "2_chelny"}, {"address": "Набережные Челны ул. 30 5/а", "lat": 55.7436283, "lon": 52.3958229, "source": "2_chelny"}, {"address": "Набережные Челны ул. 40 лет победы 52/а", "lat": 55.7378351, "lon": 52.4316318, "source": "2_chelny"}, {"address": "Набережные Челны ул. академика рубаненко 4", "lat": 55.7426341, "lon": 52.4244567, "source": "2_chelny"}, {"address": "Набережные Челны ул. мензелинский тракт 90", "lat": 55.689471, "lon": 52.423874, "source": "2_chelny"}, {"address": "Набережные Челны ул. зяб14 12/а", "lat": 55.6967322, "lon": 52.3482258, "source": "2_chelny"}, {"address": "Набережные Челны ул. моторная 52", "lat": 55.7162214, "lon": 52.5266975, "source": "2_chelny"}, {"address": "Набережные Челны ул. казанский пр-кт 106", "lat": 55.669722, "lon": 52.319176, "source": "2_chelny"}, {"address": "Набережные Челны ул. казанский пр-кт 106/2", "lat": 55.669722, "lon": 52.319176, "source": "2_chelny"}, {"address": "Набережные Челны ул. машиностроительная 49", "lat": 55.7165612, "lon": 52.4087613, "source": "2_chelny"}, {"address": "Набережные Челны ул. гагарина 40", "lat": 55.6955766, "lon": 52.3062258, "source": "2_chelny"}, {"address": "Набережные Челны ул. строителей пр-кт 45/а", "lat": 55.737284, "lon": 52.411294, "source": "2_chelny"}, {"address": "Набережные Челны ул. химиков пр-кт 53", "lat": 55.228479, "lon": 48.9038363, "source": "2_chelny"}, {"address": "Набережные Челны ул. мензелинский тракт 62", "lat": 55.69316, "lon": 52.41941, "source": "2_chelny"}, {"address": "Набережные Челны ул. студенческая 43", "lat": 55.689451, "lon": 52.303664, "source": "2_chelny"}, {"address": "Набережные Челны ул. 43 2/-", "lat": 55.7436283, "lon": 52.3958229, "source": "2_chelny"}, {"address": "Набережные Челны ул. гэс 01 12/а", "lat": 55.7436283, "lon": 52.3958229, "source": "2_chelny"}, {"address": "Набережные Челны ул. мелекесская 1", "lat": 55.6748121, "lon": 52.3073613, "source": "2_chelny"}, {"address": "Набережные Челны ул. 48 14", "lat": 55.7436283, "lon": 52.3958229, "source": "2_chelny"}, {"address": "Набережные Челны ул. шамиля усманова 133", "lat": 55.773738, "lon": 52.433409, "source": "2_chelny"}, {"address": "Набережные Челны ул. 53 3", "lat": 55.7436283, "lon": 52.3958229, "source": "2_chelny"}, {"address": "Набережные Челны ул. 14 5/б", "lat": 55.6967322, "lon": 52.3482258, "source": "2_chelny"}, {"address": "Набережные Челны ул. зяб17а 1", "lat": 55.6967322, "lon": 52.3482258, "source": "2_chelny"}, {"address": "Набережные Челны ул. ленина 29", "lat": 55.7001821, "lon": 52.3100331, "source": "2_chelny"}, {"address": "Набережные Челны ул. мира пр-кт 24", "lat": 55.7314096, "lon": 52.397437, "source": "2_chelny"}, {"address": "Набережные Челны ул. мира пр-кт 33/б", "lat": 55.732931, "lon": 52.397854, "source": "2_chelny"}, {"address": "Набережные Челны ул. мира пр-кт 61", "lat": 55.7455834, "lon": 52.4099801, "source": "2_chelny"}, {"address": "Набережные Челны ул. чапаева 2", "lat": 55.7073379, "lon": 52.3177307, "source": "2_chelny"}, {"address": "Набережные Челны ул. сююмбике 40/е", "lat": 55.7512631, "lon": 52.4087128, "source": "2_chelny"}, {"address": "Набережные Челны ул. сююмбике 7", "lat": 55.753895, "lon": 52.411464, "source": "2_chelny"}, {"address": "Набережные Челны ул. студенческая 21/а/1", "lat": 55.690706, "lon": 52.297738, "source": "2_chelny"}, {"address": "Набережные Челны ул. казанский пр-кт 5/а1", "lat": 55.671036, "lon": 52.29422, "source": "2_chelny"}, {"address": "Набережные Челны ул. 05 2", "lat": 55.7436283, "lon": 52.3958229, "source": "2_chelny"}, {"address": "Набережные Челны ул. 07 24", "lat": 55.7436283, "lon": 52.3958229, "source": "2_chelny"}, {"address": "Набережные Челны ул. 40 15", "lat": 55.7436283, "lon": 52.3958229, "source": "2_chelny"}, {"address": "Набережные Челны ул. 43 18/а", "lat": 55.7436283, "lon": 52.3958229, "source": "2_chelny"}, {"address": "Набережные Челны ул. 49 20", "lat": 55.7436283, "lon": 52.3958229, "source": "2_chelny"}, {"address": "Набережные Челны ул. автозаводский пр-кт 18/б/2", "lat": 55.754036, "lon": 52.432215, "source": "2_chelny"}, {"address": "Набережные Челны ул. автозаводский пр-кт 48", "lat": 55.7639702, "lon": 52.4144369, "source": "2_chelny"}, {"address": "Набережные Челны ул. ахметшина 106", "lat": 55.714222, "lon": 52.3990766, "source": "2_chelny"}, {"address": "Набережные Челны ул. бызова 8", "lat": 55.7436283, "lon": 52.3958229, "source": "2_chelny"}, {"address": "Набережные Челны ул. вахитова пр-кт 11", "lat": 55.7430228, "lon": 52.4252676, "source": "2_chelny"}, {"address": "Набережные Челны ул. виктора полякова 15/1", "lat": 55.760326, "lon": 52.460529, "source": "2_chelny"}, {"address": "Набережные Челны ул. гагарина 16/б", "lat": 55.6968289, "lon": 52.309795, "source": "2_chelny"}, {"address": "Набережные Челны ул. гидростроителей 3", "lat": 55.6845344, "lon": 52.2955417, "source": "2_chelny"}, {"address": "Набережные Челны ул. гэс 07 25", "lat": 55.7436283, "lon": 52.3958229, "source": "2_chelny"}, {"address": "Набережные Челны ул. изаила зарипова пр-кт 15", "lat": 55.772325, "lon": 52.482789, "source": "2_chelny"}, {"address": "Набережные Челны ул. им хади такташа 51", "lat": 55.6982826, "lon": 52.3486039, "source": "2_chelny"}, {"address": "Набережные Челны ул. казанский пр-кт 118/1", "lat": 55.675813, "lon": 52.329542, "source": "2_chelny"}, {"address": "Набережные Челны ул. ленина 135/а", "lat": 55.7001821, "lon": 52.3100331, "source": "2_chelny"}, {"address": "Набережные Челны ул. мира пр-кт 98/а", "lat": 55.76189, "lon": 52.4436815, "source": "2_chelny"}, {"address": "Набережные Челны ул. н.якупова 14", "lat": 55.6897993, "lon": 52.3330143, "source": "2_chelny"}, {"address": "Набережные Челны ул. набережночелнинский пр-кт 1/н", "lat": 55.702524, "lon": 52.324172, "source": "2_chelny"}, {"address": "Набережные Челны ул. р.фахретдина 27", "lat": 55.6948843, "lon": 52.3279115, "source": "2_chelny"}, {"address": "Набережные Челны ул. раскольникова 48/2", "lat": 55.7358454, "lon": 52.3660132, "source": "2_chelny"}, {"address": "Набережные Челны ул. севастопольская ул 4", "lat": 55.228479, "lon": 48.9038363, "source": "2_chelny"}, {"address": "Набережные Челны ул. строителей пр-кт 13", "lat": 55.739509, "lon": 52.410195, "source": "2_chelny"}, {"address": "Набережные Челны ул. строителей пр-кт 27/а", "lat": 55.737284, "lon": 52.411294, "source": "2_chelny"}, {"address": "Набережные Челны ул. строителей пр-кт 32/15", "lat": 55.737284, "lon": 52.411294, "source": "2_chelny"}, {"address": "Набережные Челны ул. хасана туфана пр-кт 4/4", "lat": 55.7357477, "lon": 52.4231254, "source": "2_chelny"}, {"address": "Набережные Челны ул. химиков пр-кт 16/г/1", "lat": 55.7335758, "lon": 52.3597346, "source": "2_chelny"}, {"address": "Набережные Челны ул. химиков пр-кт 78/б", "lat": 55.228479, "lon": 48.9038363, "source": "2_chelny"}, {"address": "Набережные Челны ул. чернышевского 31", "lat": 55.7119023, "lon": 52.3300326, "source": "2_chelny"}, {"address": "Набережные Челны ул. шевченко 25", "lat": 55.7436283, "lon": 52.3958229, "source": "2_chelny"}, {"address": "Набережные Челны ул. шинников пр-кт 3/г", "lat": 55.731526, "lon": 52.358566, "source": "2_chelny"}, {"address": "Набережные Челны ул. юности 18/а", "lat": 55.6772025, "lon": 52.2944311, "source": "2_chelny"}, {"address": "Набережные Челны ул. строителей пр-кт 47/б", "lat": 55.737284, "lon": 52.411294, "source": "2_chelny"}, {"address": "Набережные Челны ул. автозаводский пр-кт 61/а", "lat": 55.741344, "lon": 52.449505, "source": "2_chelny"}, {"address": "Набережные Челны ул. машиностроительная 1/2-", "lat": 55.7091461, "lon": 52.3955196, "source": "2_chelny"}, {"address": "Набережные Челны ул. машиностроительная 1/2а", "lat": 55.708699, "lon": 52.394742, "source": "2_chelny"}, {"address": "Набережные Челны ул. мензелинский тракт 1", "lat": 55.706715, "lon": 52.391337, "source": "2_chelny"}, {"address": "Набережные Челны ул. мензелинский тракт 1/3", "lat": 55.705843, "lon": 52.388535, "source": "2_chelny"}, {"address": "Набережные Челны ул. мензелинский тракт 1/а", "lat": 55.705843, "lon": 52.388535, "source": "2_chelny"}, {"address": "Набережные Челны ул. первопроходцев 14", "lat": 55.7436283, "lon": 52.3958229, "source": "2_chelny"}, {"address": "Набережные Челны ул. тозелеш проезд 7", "lat": 55.7384912, "lon": 52.4914096, "source": "2_chelny"}, {"address": "Набережные Челны ул. чулман пр-кт 111", "lat": 55.748539, "lon": 52.382525, "source": "2_chelny"}, {"address": "г. Казань ул. хусаина мавлютова д. 34", "lat": 55.7500503, "lon": 49.187673, "source": "kazan"}, {"address": "г. Казань ул. даурская д. 16/б", "lat": 55.761776, "lon": 49.147395, "source": "kazan"}, {"address": "г. Казань ул. победы пр-кт д. 48/а", "lat": 55.747713, "lon": 49.207915, "source": "kazan"}, {"address": "г. Казань ул. николая ершова д. 57/а", "lat": 55.799485, "lon": 49.178015, "source": "kazan"}, {"address": "г. Казань ул. нурсултана назарбаева (быв. эсперанто) д. 60/к1", "lat": 55.7723, "lon": 49.13703, "source": "kazan"}, {"address": "г. Казань ул. 25 октября д. 10", "lat": 55.81648, "lon": 49.06022, "source": "kazan"}, {"address": "г. Казань ул. газовая д. 19", "lat": 55.7696298, "lon": 49.1473926, "source": "kazan"}, {"address": "г. Казань ул. ибрагимова пр-кт д. 61/а", "lat": 55.8239619, "lon": 49.0960486, "source": "kazan"}, {"address": "г. Казань ул. шаляпина д. 39", "lat": 55.7704931, "lon": 49.1408123, "source": "kazan"}, {"address": "г. Казань ул. подлужная д. 17", "lat": 55.8009206, "lon": 49.137789, "source": "kazan"}, {"address": "г. Казань ул. тэцевская д. 21/а/8", "lat": 55.8477, "lon": 49.057402, "source": "kazan"}, {"address": "г. Казань ул. привольная 2-я д. 33/а", "lat": 55.7793063, "lon": 49.1453379, "source": "kazan"}, {"address": "г. Казань ул. академика глушко д. 4", "lat": 55.7769798, "lon": 49.2363147, "source": "kazan"}, {"address": "г. Казань ул. сибирский тракт д. 22", "lat": 55.811839, "lon": 49.181776, "source": "kazan"}, {"address": "г. Казань ул. аграрная д. 2", "lat": 55.7944727, "lon": 49.2127809, "source": "kazan"}, {"address": "г. Казань ул. сибирский тракт д. 27", "lat": 55.8133933, "lon": 49.1798191, "source": "kazan"}, {"address": "г. Казань ул. ямашева пр-кт д. 92/а", "lat": 55.827609, "lon": 49.148481, "source": "kazan"}, {"address": "г. Казань ул. михаила миля д. 63/в", "lat": 55.852844, "lon": 49.131535, "source": "kazan"}, {"address": "г. Казань ул. аэропортовская д. 27/а", "lat": 55.7898111, "lon": 49.1773237, "source": "kazan"}, {"address": "г. Казань ул. деревня универсиады тер д. 24", "lat": 55.741668, "lon": 49.1861601, "source": "kazan"}, {"address": "г. Казань ул. ямашева пр-кт д. 51/б", "lat": 55.8254692, "lon": 49.1241924, "source": "kazan"}, {"address": "г. Казань ул. волгоградская д. 18", "lat": 55.8313248, "lon": 49.0894794, "source": "kazan"}, {"address": "г. Казань ул. адоратского д. 12/а", "lat": 55.8325821, "lon": 49.1490022, "source": "kazan"}, {"address": "г. Казань ул. маршала чуйкова д. 48/а", "lat": 55.8337158, "lon": 49.1299456, "source": "kazan"}, {"address": "г. Казань ул. адоратского д. 39/б/1", "lat": 55.83866, "lon": 49.143578, "source": "kazan"}, {"address": "г. Казань ул. маршала чуйкова д. 79/а", "lat": 55.8381383, "lon": 49.1516925, "source": "kazan"}, {"address": "г. Казань ул. четаева д. 50", "lat": 55.822009, "lon": 49.120596, "source": "kazan"}, {"address": "г. Казань ул. чистопольская д. 63", "lat": 55.82084, "lon": 49.129357, "source": "kazan"}, {"address": "г. Казань ул. победы пр-кт д. 152", "lat": 55.7815588, "lon": 49.2209937, "source": "kazan"}, {"address": "г. Казань ул. академика лаврентьева д. 12/г", "lat": 55.8316334, "lon": 49.1501935, "source": "kazan"}, {"address": "г. Казань ул. победы пр-кт д. 139/2дубл", "lat": 55.776456, "lon": 49.217886, "source": "kazan"}, {"address": "г. Казань ул. азата аббасова д. 9", "lat": 55.792637, "lon": 49.248985, "source": "kazan"}, {"address": "г. Казань ул. сары садыковой д. 49", "lat": 55.7736331, "lon": 49.1180547, "source": "kazan"}, {"address": "г. Казань ул. чистопольская д. 72", "lat": 55.817911, "lon": 49.137056, "source": "kazan"}, {"address": "г. Казань ул. спартаковская д. 12", "lat": 55.7783764, "lon": 49.1315739, "source": "kazan"}, {"address": "г. Казань ул. чистопольская д. 20/а", "lat": 55.8178569, "lon": 49.1117292, "source": "kazan"}, {"address": "г. Казань ул. победы пр-кт д. 100", "lat": 55.7689015, "lon": 49.2207543, "source": "kazan"}, {"address": "г. Казань ул. победы пр-кт д. 139/2дубл", "lat": 55.776456, "lon": 49.217886, "source": "kazan"}, {"address": "г. Казань ул. декабристов д. 85", "lat": 55.818589, "lon": 49.090343, "source": "kazan"}, {"address": "г. Казань ул. магистральная д. 59/1", "lat": 55.748859, "lon": 49.105827, "source": "kazan"}, {"address": "г. Казань ул. хусаина мавлютова д. 17/е1", "lat": 55.7536209, "lon": 49.1895173, "source": "kazan"}, {"address": "г. Казань ул. юлиуса фучика д. 88", "lat": 55.762012, "lon": 49.2324745, "source": "kazan"}, {"address": "г. Казань ул. восстания д. 100/9020", "lat": 55.83342, "lon": 49.050431, "source": "kazan"}, {"address": "г. Казань ул. чистопольская д. 20/а", "lat": 55.8178569, "lon": 49.1117292, "source": "kazan"}, {"address": "г. Казань ул. декабристов д. 83", "lat": 55.816662, "lon": 49.091152, "source": "kazan"}, {"address": "г. Казань ул. космонавтов д. 67/а", "lat": 55.7968502, "lon": 49.2083867, "source": "kazan"}, {"address": "г. Казань ул. академика глушко д. 41/а", "lat": 55.7881801, "lon": 49.2280848, "source": "kazan"}, {"address": "г. Казань ул. гвардейская д. 54", "lat": 55.770308, "lon": 49.175602, "source": "kazan"}, {"address": "г. Казань ул. декабристов д. 85", "lat": 55.818589, "lon": 49.090343, "source": "kazan"}, {"address": "г. Казань ул. журналистов д. 2", "lat": 55.8071147, "lon": 49.1911526, "source": "kazan"}, {"address": "г. Казань ул. чистопольская д. 61/д", "lat": 55.81998, "lon": 49.134864, "source": "kazan"}, {"address": "г. Казань ул. рихарда зорге д. 68", "lat": 55.7473623, "lon": 49.211139, "source": "kazan"}, {"address": "г. Казань ул. карбышева д. 40/а", "lat": 55.7625927, "lon": 49.1773057, "source": "kazan"}, {"address": "г. Казань ул. фатыха амирхана ул д. 18", "lat": 55.8369956, "lon": 49.1347667, "source": "kazan"}, {"address": "г. Казань ул. победы пр-кт д. 100", "lat": 55.7689015, "lon": 49.2207543, "source": "kazan"}, {"address": "г. Казань ул. родины д. 11/а", "lat": 55.771322, "lon": 49.199974, "source": "kazan"}, {"address": "г. Казань ул. ямашева пр-кт д. 17", "lat": 55.826539, "lon": 49.099407, "source": "kazan"}, {"address": "г. Казань ул. фатыха амирхана ул д. 15/-", "lat": 55.822248, "lon": 49.132753, "source": "kazan"}, {"address": "г. Казань ул. чистопольская д. 36/-", "lat": 55.818179, "lon": 49.121479, "source": "kazan"}, {"address": "г. Казань ул. чистопольская д. 20/12", "lat": 55.8187746, "lon": 49.1117928, "source": "kazan"}, {"address": "г. Казань ул. дружбы д. 10", "lat": 55.8074683, "lon": 49.178555, "source": "kazan"}, {"address": "г. Казань ул. декабристов д. 85", "lat": 55.818589, "lon": 49.090343, "source": "kazan"}, {"address": "г. Казань ул. максимова д. 47/к1", "lat": 55.8630994, "lon": 49.0784414, "source": "kazan"}, {"address": "г. Казань ул. галимджана баруди д. 8", "lat": 55.8198741, "lon": 49.066259, "source": "kazan"}, {"address": "г. Казань ул. альфии авзаловой ул д. 3", "lat": 55.8595478, "lon": 48.9056778, "source": "kazan"}, {"address": "г. Казань ул. сибгата хакима д. 42", "lat": 55.8142772, "lon": 49.134634, "source": "kazan"}, {"address": "г. Казань ул. оренбургский тракт д. 8/д", "lat": 55.761022, "lon": 49.150763, "source": "kazan"}, {"address": "г. Казань ул. журналистов д. 62/13", "lat": 55.8319378, "lon": 49.1955899, "source": "kazan"}, {"address": "г. Казань ул. бурхана шахиди д. 9/а", "lat": 55.7878834, "lon": 49.1040276, "source": "kazan"}, {"address": "г. Казань ул. академика сахарова д. 22", "lat": 55.7828587, "lon": 49.2249834, "source": "kazan"}, {"address": "г. Казань ул. чистопольская д. 75/-", "lat": 55.82002, "lon": 49.149596, "source": "kazan"}, {"address": "г. Казань ул. сулеймановой д. 5", "lat": 55.8134545, "lon": 49.089835, "source": "kazan"}, {"address": "г. Казань ул. гаврилова д. 32", "lat": 55.8429423, "lon": 49.1478513, "source": "kazan"}, {"address": "г. Казань ул. юлиуса фучика д. 105/а/5", "lat": 55.753859, "lon": 49.230905, "source": "kazan"}, {"address": "г. Казань ул. абсалямова д. 13", "lat": 55.8176831, "lon": 49.1095635, "source": "kazan"}, {"address": "г. Казань ул. разведчика ахмерова ул д. 7", "lat": 55.796972, "lon": 49.182178, "source": "kazan"}, {"address": "г. Казань ул. товарищеская д. 25/а", "lat": 55.7854267, "lon": 49.1571839, "source": "kazan"}, {"address": "г. Казань ул. спартаковская д. 2/1", "lat": 55.780896, "lon": 49.127302, "source": "kazan"}, {"address": "г. Казань ул. академика губкина д. 52/а", "lat": 55.808945, "lon": 49.199141, "source": "kazan"}, {"address": "г. Казань ул. победы пр-кт д. 91", "lat": 55.7682994, "lon": 49.2172169, "source": "kazan"}, {"address": "г. Казань ул. победы пр-кт д. 18/г", "lat": 55.741105, "lon": 49.195653, "source": "kazan"}, {"address": "г. Казань ул. энгельса д. 15", "lat": 55.8092528, "lon": 49.0745054, "source": "kazan"}, {"address": "г. Казань ул. николая ершова д. 62/д/2", "lat": 55.795509, "lon": 49.178811, "source": "kazan"}, {"address": "г. Казань ул. фатыха амирхана ул д. 69/а-", "lat": 55.824304, "lon": 49.134594, "source": "kazan"}, {"address": "г. Казань ул. хусаина мавлютова д. 31/в", "lat": 55.7467741, "lon": 49.1918697, "source": "kazan"}, {"address": "г. Казань ул. юго-западная 2-я д. 7", "lat": 55.81884, "lon": 49.085873, "source": "kazan"}, {"address": "г. Казань ул. юлиуса фучика д. 24/а", "lat": 55.7433064, "lon": 49.2150004, "source": "kazan"}, {"address": "г. Казань ул. сыртлановой д. 8", "lat": 55.7476812, "lon": 49.1965095, "source": "kazan"}, {"address": "г. Казань ул. серова д. 43/2", "lat": 55.8244774, "lon": 49.0751603, "source": "kazan"}, {"address": "г. Казань ул. академика глушко д. 17", "lat": 55.7855029, "lon": 49.2318259, "source": "kazan"}, {"address": "г. Казань ул. родины д. 33/а", "lat": 55.760276, "lon": 49.195769, "source": "kazan"}, {"address": "г. Казань ул. ямашева пр-кт д. 43/а", "lat": 55.826343, "lon": 49.1183601, "source": "kazan"}, {"address": "г. Казань ул. победы пр-кт д. 50/а/к1", "lat": 55.748919, "lon": 49.207573, "source": "kazan"}, {"address": "г. Казань ул. ибрагимова пр-кт д. 89", "lat": 55.8196655, "lon": 49.0979559, "source": "kazan"}, {"address": "г. Казань ул. волкова д. 61", "lat": 55.7844923, "lon": 49.138954, "source": "kazan"}, {"address": "г. Казань ул. фатыха амирхана ул д. 40/а", "lat": 55.842539, "lon": 49.137136, "source": "kazan"}, {"address": "г. Казань ул. габдуллы тукая д. 130", "lat": 55.770234, "lon": 49.1222944, "source": "kazan"}, {"address": "г. Казань ул. тази гиззата д. 6/31", "lat": 55.7896585, "lon": 49.1083852, "source": "kazan"}, {"address": "г. Казань ул. вишневского д. 12", "lat": 55.785189, "lon": 49.149758, "source": "kazan"}, {"address": "г. Казань ул. фатыха амирхана ул д. 69/а-", "lat": 55.824304, "lon": 49.134594, "source": "kazan"}, {"address": "г. Казань ул. галиаскара камала д. 41", "lat": 55.7811816, "lon": 49.1053713, "source": "kazan"}, {"address": "г. Казань ул. химиков д. 1/а/3", "lat": 55.8608772, "lon": 49.0151948, "source": "kazan"}, {"address": "г. Казань ул. баумана д. 76", "lat": 55.7885833, "lon": 49.1188139, "source": "kazan"}, {"address": "г. Казань ул. седова д. 24/1", "lat": 55.7875586, "lon": 49.1801353, "source": "kazan"}, {"address": "г. Казань ул. рихарда зорге д. 98/а", "lat": 55.742977, "lon": 49.2194394, "source": "kazan"}, {"address": "г. Казань ул. спартаковская д. 12", "lat": 55.7783764, "lon": 49.1315739, "source": "kazan"}, {"address": "г. Казань ул. академика лаврентьева д. 11", "lat": 55.8332348, "lon": 49.1519853, "source": "kazan"}, {"address": "г. Казань ул. ноксинский спуск д. 4/3", "lat": 55.7660862, "lon": 49.2334236, "source": "kazan"}, {"address": "г. Казань ул. ноксинский спуск д. 4/3", "lat": 55.7660862, "lon": 49.2334236, "source": "kazan"}, {"address": "г. Казань ул. рихарда зорге д. 82", "lat": 55.7455199, "lon": 49.2151, "source": "kazan"}, {"address": "г. Казань ул. меридианная д. 1", "lat": 55.8172942, "lon": 49.1142657, "source": "kazan"}, {"address": "г. Казань ул. фатыха амирхана ул д. 3/а", "lat": 55.817663, "lon": 49.130183, "source": "kazan"}, {"address": "г. Казань ул. декабристов д. 133", "lat": 55.8288427, "lon": 49.0809195, "source": "kazan"}, {"address": "г. Казань ул. чистопольская д. 75/-", "lat": 55.82002, "lon": 49.149596, "source": "kazan"}, {"address": "г. Казань ул. академика парина д. 22", "lat": 55.7448367, "lon": 49.1813827, "source": "kazan"}, {"address": "г. Казань ул. рихарда зорге д. 68", "lat": 55.7473623, "lon": 49.211139, "source": "kazan"}, {"address": "г. Казань ул. маршала чуйкова д. 23/а", "lat": 55.8366508, "lon": 49.1202387, "source": "kazan"}, {"address": "г. Казань ул. чистопольская д. 86/10-", "lat": 55.818766, "lon": 49.143065, "source": "kazan"}, {"address": "г. Казань ул. ямашева пр-кт д. 37/б", "lat": 55.82624, "lon": 49.113385, "source": "kazan"}, {"address": "г. Казань ул. чистопольская д. 19/а", "lat": 55.81997, "lon": 49.114795, "source": "kazan"}, {"address": "г. Казань ул. академика завойского д. 1/а", "lat": 55.7583213, "lon": 49.2325111, "source": "kazan"}, {"address": "г. Казань ул. белинского д. 21/б", "lat": 55.8519494, "lon": 49.0707259, "source": "kazan"}, {"address": "г. Казань ул. декабристов д. 85/в", "lat": 55.819196, "lon": 49.091646, "source": "kazan"}, {"address": "г. Казань ул. татарстан д. 7", "lat": 55.7804871, "lon": 49.1138686, "source": "kazan"}, {"address": "г. Казань ул. фатыха амирхана ул д. 101", "lat": 55.842172, "lon": 49.132453, "source": "kazan"}, {"address": "г. Казань ул. юлиуса фучика д. 64/е", "lat": 55.75346, "lon": 49.232613, "source": "kazan"}, {"address": "г. Казань ул. ямашева пр-кт д. 92/а", "lat": 55.827609, "lon": 49.148481, "source": "kazan"}, {"address": "г. Казань ул. каюма насыри д. 5", "lat": 55.7810225, "lon": 49.1156435, "source": "kazan"}, {"address": "г. Казань ул. зайни султана д. 12", "lat": 55.7800288, "lon": 49.1144915, "source": "kazan"}, {"address": "г. Казань ул. копылова д. 14", "lat": 55.8578114, "lon": 49.0857283, "source": "kazan"}, {"address": "г. Казань ул. роторная д. 27/б", "lat": 55.765539, "lon": 49.143829, "source": "kazan"}, {"address": "г. Казань ул. шоссейная д. 57", "lat": 55.808498, "lon": 49.087406, "source": "kazan"}, {"address": "г. Казань ул. гаврилова д. 32", "lat": 55.8429423, "lon": 49.1478513, "source": "kazan"}, {"address": "г. Казань ул. маршала чуйкова д. 4/2", "lat": 55.8359957, "lon": 49.1310994, "source": "kazan"}, {"address": "г. Казань ул. зур урам д. 33", "lat": 55.808994, "lon": 49.19417, "source": "kazan"}, {"address": "г. Казань ул. чистопольская д. 5", "lat": 55.819474, "lon": 49.101626, "source": "kazan"}, {"address": "г. Казань ул. тихорецкая д. 7/к5", "lat": 55.730796, "lon": 49.111049, "source": "kazan"}, {"address": "г. Казань ул. каюма насыри д. 3/а2", "lat": 55.7811323, "lon": 49.1153877, "source": "kazan"}, {"address": "г. Казань ул. чистопольская д. 33/в", "lat": 55.8199088, "lon": 49.1222473, "source": "kazan"}, {"address": "г. Казань ул. восстания д. 100/6230", "lat": 55.83342, "lon": 49.050431, "source": "kazan"}, {"address": "г. Казань ул. сафиуллина д. 7", "lat": 55.7495064, "lon": 49.2272063, "source": "kazan"}, {"address": "г. Казань ул. гвардейская д. 45/а/1", "lat": 55.7794966, "lon": 49.1731749, "source": "kazan"}, {"address": "г. Казань ул. сибгата хакима д. 3", "lat": 55.815047, "lon": 49.10634, "source": "kazan"}, {"address": "г. Казань ул. декабристов д. 83", "lat": 55.816662, "lon": 49.091152, "source": "kazan"}, {"address": "г. Казань ул. серова д. 7", "lat": 55.8303686, "lon": 49.0642728, "source": "kazan"}, {"address": "г. Казань ул. галимджана баруди д. 4", "lat": 55.8185044, "lon": 49.0651044, "source": "kazan"}, {"address": "г. Казань ул. октябрьская д. 18", "lat": 55.840184, "lon": 49.093999, "source": "kazan"}, {"address": "г. Казань ул. серова д. 4/а", "lat": 55.8266062, "lon": 49.0589644, "source": "kazan"}, {"address": "г. Казань ул. абсалямова д. 15", "lat": 55.818594, "lon": 49.109675, "source": "kazan"}, {"address": "г. Казань ул. хади такташа д. 41", "lat": 55.7755297, "lon": 49.1296893, "source": "kazan"}, {"address": "г. Казань ул. ямашева пр-кт д. 100/г", "lat": 55.827037, "lon": 49.153642, "source": "kazan"}, {"address": "г. Казань ул. чистопольская д. 85/а", "lat": 55.823859, "lon": 49.15513, "source": "kazan"}, {"address": "г. Казань ул. победы пр-кт д. 138/а", "lat": 55.780183, "lon": 49.224668, "source": "kazan"}, {"address": "г. Казань ул. юлиуса фучика д. 90/а", "lat": 55.7633602, "lon": 49.2349162, "source": "kazan"}, {"address": "г. Казань ул. карбышева д. 12/а", "lat": 55.7531772, "lon": 49.1710641, "source": "kazan"}, {"address": "г. Казань ул. адоратского д. 1/а", "lat": 55.820086, "lon": 49.146739, "source": "kazan"}, {"address": "г. Казань ул. гладилова д. 38/а", "lat": 55.810627, "lon": 49.06902, "source": "kazan"}, {"address": "г. Казань ул. аметьевская д. 18/3", "lat": 55.773803, "lon": 49.1525036, "source": "kazan"}, {"address": "г. Казань ул. аграрная д. 2", "lat": 55.7944727, "lon": 49.2127809, "source": "kazan"}, {"address": "г. Казань ул. право-булачная д. 33/1", "lat": 55.7908284, "lon": 49.1098561, "source": "kazan"}, {"address": "г. Казань ул. лечебная д. 7", "lat": 55.8581299, "lon": 49.0779124, "source": "kazan"}, {"address": "г. Казань ул. владимира кулагина д. 21", "lat": 55.742449, "lon": 49.1225532, "source": "kazan"}, {"address": "г. Казань ул. родины д. 20", "lat": 55.764379, "lon": 49.200189, "source": "kazan"}, {"address": "г. Казань ул. восход д. 45/а", "lat": 55.8443927, "lon": 49.0698434, "source": "kazan"}, {"address": "г. Казань ул. журналистов д. 6", "lat": 55.8080412, "lon": 49.1905741, "source": "kazan"}, {"address": "г. Казань ул. горьковское шоссе д. 53/а", "lat": 55.8256589, "lon": 49.0218005, "source": "kazan"}, {"address": "г. Казань ул. волгоградская д. 8/2", "lat": 55.8300576, "lon": 49.0841634, "source": "kazan"}, {"address": "г. Казань ул. энгельса д. 19", "lat": 55.8092923, "lon": 49.0733314, "source": "kazan"}, {"address": "г. Казань ул. академика сахарова д. 22", "lat": 55.7828587, "lon": 49.2249834, "source": "kazan"}, {"address": "г. Казань ул. четаева д. 66/б", "lat": 55.8233324, "lon": 49.1104718, "source": "kazan"}, {"address": "г. Казань ул. декабристов д. 85/б", "lat": 55.819398, "lon": 49.091565, "source": "kazan"}, {"address": "г. Казань ул. даурская д. 25", "lat": 55.7663346, "lon": 49.1798191, "source": "kazan"}, {"address": "г. Казань ул. мулланура вахитова д. 10", "lat": 55.8131116, "lon": 49.0875258, "source": "kazan"}, {"address": "г. Казань ул. фатыха амирхана ул д. 18/а", "lat": 55.8369956, "lon": 49.1347667, "source": "kazan"}, {"address": "г. Казань ул. николая ершова д. 31/в", "lat": 55.7946742, "lon": 49.1717511, "source": "kazan"}, {"address": "г. Казань ул. энгельса д. 19", "lat": 55.8092923, "lon": 49.0733314, "source": "kazan"}, {"address": "г. Казань ул. городская д. 5/в", "lat": 55.834335, "lon": 49.071285, "source": "kazan"}, {"address": "г. Казань ул. социалистическая д. 8", "lat": 55.8570221, "lon": 49.0796698, "source": "kazan"}, {"address": "г. Казань ул. чистопольская д. 36/-", "lat": 55.818179, "lon": 49.121479, "source": "kazan"}, {"address": "г. Казань ул. спартаковская д. 12", "lat": 55.7783764, "lon": 49.1315739, "source": "kazan"}, {"address": "г. Казань ул. юлиуса фучика д. 88", "lat": 55.762012, "lon": 49.2324745, "source": "kazan"}, {"address": "г. Казань ул. академика лаврентьева д. 19", "lat": 55.8341022, "lon": 49.1510116, "source": "kazan"}, {"address": "г. Казань ул. победы пр-кт д. 21/-", "lat": 55.7498639, "lon": 49.2054016, "source": "kazan"}, {"address": "г. Казань ул. серова д. 48", "lat": 55.8229128, "lon": 49.075131, "source": "kazan"}, {"address": "г. Казань ул. рихарда зорге д. 66/в", "lat": 55.747314, "lon": 49.209446, "source": "kazan"}, {"address": "г. Казань ул. братьев касимовых д. 38", "lat": 55.7563436, "lon": 49.2004441, "source": "kazan"}, {"address": "г. Казань ул. братьев касимовых д. 40/а", "lat": 55.7565324, "lon": 49.2026733, "source": "kazan"}, {"address": "г. Казань ул. сибгата хакима д. 3", "lat": 55.815047, "lon": 49.10634, "source": "kazan"}, {"address": "г. Казань ул. братьев петряевых д. 5/4", "lat": 55.766471, "lon": 49.123177, "source": "kazan"}, {"address": "г. Казань ул. ямашева пр-кт д. 100/г", "lat": 55.827037, "lon": 49.153642, "source": "kazan"}, {"address": "г. Казань ул. академика глушко д. 35", "lat": 55.7879281, "lon": 49.2291359, "source": "kazan"}, {"address": "г. Казань ул. ломжинская д. 12/а", "lat": 55.7660571, "lon": 49.2249063, "source": "kazan"}, {"address": "г. Казань ул. федосеевская д. 58/-", "lat": 55.8019897, "lon": 49.1213633, "source": "kazan"}, {"address": "г. Казань ул. подлужная д. 17", "lat": 55.8009206, "lon": 49.137789, "source": "kazan"}, {"address": "г. Казань ул. даурская д. 44/а", "lat": 55.7676437, "lon": 49.1871719, "source": "kazan"}, {"address": "г. Казань ул. баумана д. 54/10", "lat": 55.7907065, "lon": 49.1145779, "source": "kazan"}, {"address": "г. Казань ул. аделя кутуя д. 145/б/1", "lat": 55.7812522, "lon": 49.1948925, "source": "kazan"}, {"address": "г. Казань ул. азата аббасова д. 13", "lat": 55.7912212, "lon": 49.2503075, "source": "kazan"}, {"address": "г. Казань ул. ахтямова д. 1", "lat": 55.7750034, "lon": 49.1203941, "source": "kazan"}, {"address": "г. Казань ул. лево-булачная д. 28", "lat": 55.7908942, "lon": 49.1082819, "source": "kazan"}, {"address": "г. Казань ул. адоратского д. 26", "lat": 55.8353637, "lon": 49.1480103, "source": "kazan"}, {"address": "г. Казань ул. габдуллы тукая д. 18", "lat": 55.775262, "lon": 49.117957, "source": "kazan"}, {"address": "г. Казань ул. чистопольская д. 61/а-", "lat": 55.819934, "lon": 49.132537, "source": "kazan"}, {"address": "г. Казань ул. декабристов д. 119/а", "lat": 55.824314, "lon": 49.08578, "source": "kazan"}, {"address": "г. Казань ул. павлюхина д. 106/а", "lat": 55.7695732, "lon": 49.1432152, "source": "kazan"}, {"address": "г. Казань ул. гвардейская д. 11/а", "lat": 55.7892, "lon": 49.172123, "source": "kazan"}, {"address": "г. Казань ул. достоевского д. 52", "lat": 55.7869783, "lon": 49.1536213, "source": "kazan"}, {"address": "г. Казань ул. чистопольская д. 71/б", "lat": 55.8199096, "lon": 49.1431882, "source": "kazan"}, {"address": "г. Казань ул. шоссейная д. 57", "lat": 55.808498, "lon": 49.087406, "source": "kazan"}, {"address": "г. Казань ул. победы пр-кт д. 91", "lat": 55.7682994, "lon": 49.2172169, "source": "kazan"}, {"address": "г. Казань ул. адоратского д. 1/б", "lat": 55.8212266, "lon": 49.1452591, "source": "kazan"}, {"address": "г. Казань ул. ибрагимова пр-кт д. 45", "lat": 55.8299311, "lon": 49.0928989, "source": "kazan"}, {"address": "г. Казань ул. голубятникова д. 20/а", "lat": 55.8373871, "lon": 49.1146337, "source": "kazan"}, {"address": "г. Казань ул. академика сахарова д. 22", "lat": 55.7828587, "lon": 49.2249834, "source": "kazan"}, {"address": "г. Казань ул. меридианная д. 1", "lat": 55.8172942, "lon": 49.1142657, "source": "kazan"}, {"address": "г. Казань ул. виктора сажинова д. 3/а", "lat": 55.864251, "lon": 48.875906, "source": "kazan"}, {"address": "г. Казань ул. журналистов д. 101/в", "lat": 55.8286792, "lon": 49.1947373, "source": "kazan"}, {"address": "г. Казань ул. энгельса д. 14", "lat": 55.8086336, "lon": 49.0730507, "source": "kazan"}, {"address": "г. Казань ул. чистопольская д. 61/а-", "lat": 55.819934, "lon": 49.132537, "source": "kazan"}, {"address": "г. Казань ул. лобачевского д. 16/34", "lat": 55.7972443, "lon": 49.122546, "source": "kazan"}, {"address": "г. Казань ул. фатыха амирхана ул д. 40/а", "lat": 55.842539, "lon": 49.137136, "source": "kazan"}, {"address": "г. Казань ул. фатыха амирхана ул д. 48/б", "lat": 55.84328, "lon": 49.136604, "source": "kazan"}, {"address": "г. Казань ул. академика губкина д. 11/а", "lat": 55.8049336, "lon": 49.1893795, "source": "kazan"}, {"address": "г. Казань ул. копылова д. 3", "lat": 55.851936, "lon": 49.083538, "source": "kazan"}, {"address": "г. Казань ул. юлиуса фучика д. 133", "lat": 55.7677225, "lon": 49.2306293, "source": "kazan"}, {"address": "г. Казань ул. зинина д. 3", "lat": 55.7910972, "lon": 49.1566107, "source": "kazan"}, {"address": "г. Казань ул. бондаренко д. 8/а", "lat": 55.82448, "lon": 49.105473, "source": "kazan"}, {"address": "г. Казань ул. дементьева д. 1", "lat": 55.8462781, "lon": 49.0863648, "source": "kazan"}, {"address": "г. Казань ул. гладилова д. 38/а", "lat": 55.810627, "lon": 49.06902, "source": "kazan"}, {"address": "г. Казань ул. петербургская д. 49", "lat": 55.781603, "lon": 49.133597, "source": "kazan"}, {"address": "г. Казань ул. петербургская д. 55", "lat": 55.781252, "lon": 49.134173, "source": "kazan"}, {"address": "г. Казань ул. восстания д. 37", "lat": 55.8335548, "lon": 49.0854312, "source": "kazan"}, {"address": "г. Казань ул. габдуллы тукая д. 113/а", "lat": 55.768441, "lon": 49.125871, "source": "kazan"}, {"address": "г. Казань ул. ломжинская д. 24/а", "lat": 55.7665214, "lon": 49.2304082, "source": "kazan"}, {"address": "г. Казань ул. бутлерова д. 21", "lat": 55.7880288, "lon": 49.1300946, "source": "kazan"}, {"address": "г. Казань ул. галимджана баруди д. 8", "lat": 55.8198741, "lon": 49.066259, "source": "kazan"}, {"address": "г. Казань ул. бухарская д. 3/а", "lat": 55.7773699, "lon": 49.1983948, "source": "kazan"}, {"address": "г. Казань ул. курчатова д. 10", "lat": 55.759713, "lon": 49.1729504, "source": "kazan"}, {"address": "г. Казань ул. абсалямова д. 37/а", "lat": 55.825082, "lon": 49.109612, "source": "kazan"}, {"address": "г. Казань ул. адоратского д. 3/а", "lat": 55.82201, "lon": 49.1457723, "source": "kazan"}, {"address": "г. Казань ул. чистопольская д. 5", "lat": 55.819474, "lon": 49.101626, "source": "kazan"}, {"address": "г. Казань ул. меридианная д. 2", "lat": 55.8173684, "lon": 49.116627, "source": "kazan"}, {"address": "г. Казань ул. чистопольская д. 86/10-", "lat": 55.818766, "lon": 49.143065, "source": "kazan"}, {"address": "г. Казань ул. зинина д. 7", "lat": 55.7903383, "lon": 49.1564527, "source": "kazan"}, {"address": "г. Казань ул. восстания д. 12/а/1", "lat": 55.836681, "lon": 49.097107, "source": "kazan"}, {"address": "г. Казань ул. красной позиции д. 2", "lat": 55.7857369, "lon": 49.1636216, "source": "kazan"}, {"address": "г. Казань ул. космонавтов д. 57/в", "lat": 55.7961317, "lon": 49.1966941, "source": "kazan"}, {"address": "г. Казань ул. декабристов д. 2", "lat": 55.8149874, "lon": 49.102984, "source": "kazan"}, {"address": "г. Казань ул. техническая д. 9/1", "lat": 55.727187, "lon": 49.133552, "source": "kazan"}, {"address": "г. Казань ул. победы пр-кт д. 152/33", "lat": 55.78157, "lon": 49.221012, "source": "kazan"}, {"address": "г. Казань ул. ямашева пр-кт д. 10", "lat": 55.826696, "lon": 49.089333, "source": "kazan"}, {"address": "г. Казань ул. шаляпина д. 32", "lat": 55.7695288, "lon": 49.1395241, "source": "kazan"}, {"address": "г. Казань ул. сосновая д. 1/1", "lat": 55.680427, "lon": 49.119091, "source": "kazan"}, {"address": "г. Казань ул. победы пр-кт д. 139/2", "lat": 55.776456, "lon": 49.217886, "source": "kazan"}, {"address": "г. Казань ул. чистопольская д. 36/-", "lat": 55.818179, "lon": 49.121479, "source": "kazan"}, {"address": "г. Казань ул. восстания д. 100/46", "lat": 55.83342, "lon": 49.050431, "source": "kazan"}, {"address": "г. Казань ул. дементьева д. 26/а", "lat": 55.8599787, "lon": 49.106016, "source": "kazan"}, {"address": "г. Казань ул. галиаскара камала д. 5/а", "lat": 55.7853974, "lon": 49.1109397, "source": "kazan"}, {"address": "г. Казань ул. галиаскара камала д. 5/а", "lat": 55.7853974, "lon": 49.1109397, "source": "kazan"}, {"address": "г. Казань ул. михаила худякова д. 7", "lat": 55.7830372, "lon": 49.1121201, "source": "kazan"}, {"address": "г. Казань ул. московская д. 66/а", "lat": 55.783958, "lon": 49.112833, "source": "kazan"}, {"address": "г. Казань ул. профсоюзная д. 26", "lat": 55.7908699, "lon": 49.1166243, "source": "kazan"}, {"address": "г. Казань ул. гвардейская д. 40", "lat": 55.7816459, "lon": 49.1701385, "source": "kazan"}, {"address": "г. Казань ул. вишневского д. 21", "lat": 55.789117, "lon": 49.152623, "source": "kazan"}, {"address": "г. Казань ул. восстания д. 52", "lat": 55.833663, "lon": 49.075656, "source": "kazan"}, {"address": "г. Казань ул. большая волга д. 4", "lat": 55.797554, "lon": 49.066699, "source": "kazan"}, {"address": "г. Казань ул. фатыха амирхана ул д. 31/б", "lat": 55.828571, "lon": 49.132753, "source": "kazan"}, {"address": "г. Казань ул. чистопольская д. 20/а", "lat": 55.8178569, "lon": 49.1117292, "source": "kazan"}, {"address": "г. Казань ул. чистопольская д. 19/а", "lat": 55.81997, "lon": 49.114795, "source": "kazan"}, {"address": "г. Казань ул. чистопольская д. 5/а", "lat": 55.82036, "lon": 49.101543, "source": "kazan"}, {"address": "г. Казань ул. гаврилова д. 32", "lat": 55.8429423, "lon": 49.1478513, "source": "kazan"}, {"address": "г. Казань ул. академика губкина д. 18/б", "lat": 55.8058587, "lon": 49.1942849, "source": "kazan"}, {"address": "г. Казань ул. баумана д. 54", "lat": 55.7907065, "lon": 49.1145779, "source": "kazan"}, {"address": "г. Казань ул. фатыха амирхана ул д. 31/б", "lat": 55.828571, "lon": 49.132753, "source": "kazan"}, {"address": "г. Казань ул. разведчика ахмерова ул д. 7", "lat": 55.796972, "lon": 49.182178, "source": "kazan"}, {"address": "г. Казань ул. хади такташа д. 54/а", "lat": 55.7743715, "lon": 49.1271753, "source": "kazan"}, {"address": "г. Казань ул. парижской коммуны д. 25", "lat": 55.7816307, "lon": 49.1126826, "source": "kazan"}, {"address": "г. Казань ул. чернышевского д. 33", "lat": 55.789547, "lon": 49.105659, "source": "kazan"}, {"address": "г. Казань ул. дементьева д. 1/лит/ж", "lat": 55.8462781, "lon": 49.0863648, "source": "kazan"}, {"address": "г. Казань ул. академика королева д. 19", "lat": 55.8388884, "lon": 49.0830133, "source": "kazan"}, {"address": "г. Казань ул. пушкина д. 26", "lat": 55.79105, "lon": 49.125121, "source": "kazan"}, {"address": "г. Казань ул. гаражная 2-я д. 4", "lat": 55.7442013, "lon": 49.1087283, "source": "kazan"}, {"address": "г. Казань ул. волкова д. 59", "lat": 55.7871607, "lon": 49.1434783, "source": "kazan"}, {"address": "г. Казань ул. аделя кутуя д. 82/2", "lat": 55.7826472, "lon": 49.1822754, "source": "kazan"}, {"address": "г. Казань ул. короленко д. 58/ак1", "lat": 55.843025, "lon": 49.099802, "source": "kazan"}, {"address": "г. Казань ул. краснококшайская д. 52", "lat": 55.8177262, "lon": 49.0602599, "source": "kazan"}, {"address": "г. Казань ул. краснококшайская д. 52", "lat": 55.8177262, "lon": 49.0602599, "source": "kazan"}, {"address": "г. Казань ул. меридианная д. 1", "lat": 55.8172942, "lon": 49.1142657, "source": "kazan"}, {"address": "г. Казань ул. меридианная д. 1", "lat": 55.8172942, "lon": 49.1142657, "source": "kazan"}, {"address": "г. Казань ул. аделя кутуя д. 167", "lat": 55.7704608, "lon": 49.1877805, "source": "kazan"}, {"address": "г. Казань ул. фатыха амирхана ул д. 21/г", "lat": 55.824612, "lon": 49.131809, "source": "kazan"}, {"address": "г. Казань ул. мулланура вахитова д. 8", "lat": 55.8144408, "lon": 49.0881231, "source": "kazan"}, {"address": "г. Казань ул. сулеймановой д. 3", "lat": 55.81398, "lon": 49.0897584, "source": "kazan"}, {"address": "г. Казань ул. островского д. 69", "lat": 55.7832942, "lon": 49.1267735, "source": "kazan"}, {"address": "г. Казань ул. марселя салимжанова д. 2/г", "lat": 55.780525, "lon": 49.12565, "source": "kazan"}, {"address": "г. Казань ул. дорожная (отары) д. 1", "lat": 55.723907, "lon": 49.0977526, "source": "kazan"}, {"address": "г. Казань ул. рихарда зорге д. 98/а", "lat": 55.742977, "lon": 49.2194394, "source": "kazan"}, {"address": "г. Казань ул. кремлевская д. 15", "lat": 55.7943821, "lon": 49.1144385, "source": "kazan"}, {"address": "г. Казань ул. ибрагимова пр-кт д. 17", "lat": 55.8392878, "lon": 49.0887144, "source": "kazan"}, {"address": "г. Казань ул. волкова д. 59", "lat": 55.7871607, "lon": 49.1434783, "source": "kazan"}, {"address": "г. Казань ул. спартаковская д. 2", "lat": 55.779458, "lon": 49.128104, "source": "kazan"}, {"address": "г. Казань ул. галимджана баруди д. 8", "lat": 55.8198741, "lon": 49.066259, "source": "kazan"}, {"address": "г. Казань ул. фатыха амирхана ул д. 1/-", "lat": 55.8151894, "lon": 49.1315545, "source": "kazan"}, {"address": "г. Казань ул. рахимова д. 8", "lat": 55.8408576, "lon": 49.020962, "source": "kazan"}, {"address": "г. Казань ул. аделя кутуя д. 16", "lat": 55.7865699, "lon": 49.1704003, "source": "kazan"}, {"address": "г. Казань ул. академика парина д. 22", "lat": 55.7448367, "lon": 49.1813827, "source": "kazan"}, {"address": "г. Казань ул. ямашева пр-кт д. 17", "lat": 55.826539, "lon": 49.099407, "source": "kazan"}, {"address": "г. Казань ул. юлиуса фучика д. 34", "lat": 55.7456669, "lon": 49.2195505, "source": "kazan"}, {"address": "г. Казань ул. гагарина д. 20/а", "lat": 55.838819, "lon": 49.089678, "source": "kazan"}, {"address": "г. Казань ул. аделя кутуя д. 16", "lat": 55.7865699, "lon": 49.1704003, "source": "kazan"}, {"address": "г. Казань ул. ямашева пр-кт д. 69/в", "lat": 55.825042, "lon": 49.134594, "source": "kazan"}, {"address": "г. Казань ул. академика павлова д. 1", "lat": 55.8628327, "lon": 49.1059058, "source": "kazan"}, {"address": "г. Казань ул. годовикова д. 1/а", "lat": 55.8570007, "lon": 49.0960486, "source": "kazan"}, {"address": "г. Казань ул. шуртыгина д. 11", "lat": 55.7904447, "lon": 49.1764126, "source": "kazan"}, {"address": "г. Казань ул. габдуллы тукая д. 115", "lat": 55.766916, "lon": 49.126437, "source": "kazan"}, {"address": "г. Казань ул. восстания д. 119", "lat": 55.8313159, "lon": 49.0517457, "source": "kazan"}, {"address": "г. Казань ул. чистопольская д. 9/а", "lat": 55.820314, "lon": 49.106585, "source": "kazan"}, {"address": "г. Казань ул. родины д. 7/4", "lat": 55.770097, "lon": 49.1947, "source": "kazan"}, {"address": "г. Казань ул. ямашева пр-кт д. 36", "lat": 55.828808, "lon": 49.101773, "source": "kazan"}, {"address": "г. Казань ул. чистопольская д. 40/-", "lat": 55.8179821, "lon": 49.1225192, "source": "kazan"}, {"address": "г. Казань ул. четаева д. 50", "lat": 55.822009, "lon": 49.120596, "source": "kazan"}, {"address": "г. Казань ул. маршала чуйкова д. 41/а", "lat": 55.8364308, "lon": 49.1357906, "source": "kazan"}, {"address": "г. Казань ул. фатыха амирхана ул д. 69/а-", "lat": 55.824304, "lon": 49.134594, "source": "kazan"}, {"address": "г. Казань ул. юлиуса фучика д. 49", "lat": 55.7448221, "lon": 49.2016776, "source": "kazan"}, {"address": "г. Казань ул. хади такташа д. 41", "lat": 55.7755297, "lon": 49.1296893, "source": "kazan"}, {"address": "г. Казань ул. нариманова д. 15/а", "lat": 55.7853506, "lon": 49.1039926, "source": "kazan"}, {"address": "г. Казань ул. достоевского д. 10", "lat": 55.7877291, "lon": 49.1418505, "source": "kazan"}, {"address": "г. Казань ул. минская д. 9", "lat": 55.7734699, "lon": 49.2304925, "source": "kazan"}, {"address": "г. Казань ул. победы пр-кт д. 17", "lat": 55.747176, "lon": 49.2008, "source": "kazan"}, {"address": "г. Казань ул. чистопольская д. 5", "lat": 55.819474, "lon": 49.101626, "source": "kazan"}, {"address": "г. Казань ул. ибрагимова пр-кт д. 56", "lat": 55.8214328, "lon": 49.0934458, "source": "kazan"}, {"address": "г. Казань ул. ямашева пр-кт д. 115/а", "lat": 55.820749, "lon": 49.159388, "source": "kazan"}, {"address": "г. Казань ул. гвардейская д. 35", "lat": 55.784792, "lon": 49.171585, "source": "kazan"}, {"address": "г. Казань ул. техническая д. 25", "lat": 55.748675, "lon": 49.131234, "source": "kazan"}, {"address": "г. Казань ул. гвардейская д. 11/а", "lat": 55.7892, "lon": 49.172123, "source": "kazan"}, {"address": "г. Казань ул. карбышева д. 12/а", "lat": 55.7531772, "lon": 49.1710641, "source": "kazan"}, {"address": "г. Казань ул. дзержинского д. 1/а", "lat": 55.7964312, "lon": 49.1123812, "source": "kazan"}, {"address": "г. Казань ул. гвардейская д. 54", "lat": 55.770308, "lon": 49.175602, "source": "kazan"}, {"address": "г. Казань ул. академика губкина д. 39/1", "lat": 55.8096617, "lon": 49.1992655, "source": "kazan"}, {"address": "г. Казань ул. гвардейская д. 52/2", "lat": 55.77778, "lon": 49.173, "source": "kazan"}, {"address": "г. Казань ул. горьковское ш д. 28/1", "lat": 55.8290105, "lon": 49.0321015, "source": "kazan"}, {"address": "г. Казань ул. бондаренко д. 34", "lat": 55.8157137, "lon": 49.105424, "source": "kazan"}, {"address": "г. Казань ул. техническая д. 120/в", "lat": 55.754395, "lon": 49.131953, "source": "kazan"}, {"address": "г. Казань ул. декабристов д. 85/б", "lat": 55.819398, "lon": 49.091565, "source": "kazan"}, {"address": "г. Казань ул. кремлевская д. 2/а", "lat": 55.7948639, "lon": 49.1120333, "source": "kazan"}, {"address": "г. Казань ул. московская д. 71", "lat": 55.788838, "lon": 49.107939, "source": "kazan"}, {"address": "г. Казань ул. парижской коммуны д. 25", "lat": 55.7816307, "lon": 49.1126826, "source": "kazan"}, {"address": "г. Казань ул. габдуллы тукая д. 64", "lat": 55.778461, "lon": 49.114256, "source": "kazan"}, {"address": "г. Казань ул. декабристов д. 81/б", "lat": 55.818624, "lon": 49.094206, "source": "kazan"}, {"address": "г. Казань ул. братьев касимовых д. 45/стр", "lat": 55.7573039, "lon": 49.2047659, "source": "kazan"}, {"address": "г. Казань ул. петра витера ул д. 1/11/стр", "lat": 55.8541749, "lon": 49.1174388, "source": "kazan"}, {"address": "г. Казань ул. фатыха амирхана ул д. 40/а", "lat": 55.842539, "lon": 49.137136, "source": "kazan"}, {"address": "г. Казань ул. петербургская д. 37", "lat": 55.7835178, "lon": 49.1292787, "source": "kazan"}, {"address": "г. Казань ул. баумана д. 82", "lat": 55.7874752, "lon": 49.120561, "source": "kazan"}, {"address": "г. Казань ул. рихарда зорге д. 95", "lat": 55.7462889, "lon": 49.2165737, "source": "kazan"}, {"address": "г. Казань ул. ямашева пр-кт д. 76", "lat": 55.827606, "lon": 49.137307, "source": "kazan"}, {"address": "г. Казань ул. кольцова д. 45/а", "lat": 55.8156009, "lon": 49.0740131, "source": "kazan"}, {"address": "г. Казань ул. чистопольская д. 10/8", "lat": 55.81871, "lon": 49.104042, "source": "kazan"}, {"address": "г. Казань ул. декабристов д. 129", "lat": 55.8267117, "lon": 49.0834959, "source": "kazan"}, {"address": "г. Казань ул. ефремова д. 146", "lat": 55.7944326, "lon": 49.1115164, "source": "kazan"}, {"address": "г. Казань ул. закиева д. 1", "lat": 55.776701, "lon": 49.221112, "source": "kazan"}, {"address": "г. Казань ул. московская д. 19/8-", "lat": 55.791553, "lon": 49.105174, "source": "kazan"}, {"address": "г. Казань ул. николая ершова д. 29/б", "lat": 55.7941033, "lon": 49.1690499, "source": "kazan"}, {"address": "г. Казань ул. островского д. 103", "lat": 55.7781465, "lon": 49.1376766, "source": "kazan"}, {"address": "г. Казань ул. петербургская д. 21", "lat": 55.7847297, "lon": 49.1271175, "source": "kazan"}, {"address": "г. Казань ул. петербургская д. 74", "lat": 55.7783374, "lon": 49.1390019, "source": "kazan"}, {"address": "г. Казань ул. петербургская д. 76", "lat": 55.778076, "lon": 49.139415, "source": "kazan"}, {"address": "г. Казань ул. рихарда зорге д. 75", "lat": 55.7482516, "lon": 49.2130556, "source": "kazan"}, {"address": "г. Казань ул. советская пл д. 23", "lat": 55.8705279, "lon": 49.2245739, "source": "kazan"}, {"address": "г. Казань ул. ямашева пр-кт д. 82", "lat": 55.827746, "lon": 49.146738, "source": "kazan"}, {"address": "г. Казань ул. николая ершова д. 35/а", "lat": 55.795607, "lon": 49.172962, "source": "kazan"}, {"address": "г. Казань ул. абсалямова д. 14", "lat": 55.8201086, "lon": 49.1113857, "source": "kazan"}, {"address": "г. Казань ул. залесная д. 38", "lat": 55.8494175, "lon": 48.9014354, "source": "kazan"}, {"address": "г. Казань ул. поперечно-базарная д. 32", "lat": 55.8151877, "lon": 49.0750587, "source": "kazan"}, {"address": "г. Казань ул. рихарда зорге д. 102", "lat": 55.741394, "lon": 49.22179, "source": "kazan"}, {"address": "г. Казань ул. тулпар д. 3/а", "lat": 55.7844608, "lon": 49.1883165, "source": "kazan"}, {"address": "г. Казань ул. юлиуса фучика д. 92/а", "lat": 55.764729, "lon": 49.233229, "source": "kazan"}, {"address": "г. Казань ул. чистопольская д. 11", "lat": 55.82, "lon": 49.107384, "source": "kazan"}, {"address": "г. Казань ул. комиссара габишева д. 36", "lat": 55.754244, "lon": 49.2420772, "source": "kazan"}, {"address": "г. Казань ул. победы пр-кт д. 91", "lat": 55.7682994, "lon": 49.2172169, "source": "kazan"}, {"address": "г. Казань ул. ямашева пр-кт д. 46", "lat": 55.82975, "lon": 49.117693, "source": "kazan"}, {"address": "г. Казань ул. адоратского д. 21/а", "lat": 55.8319362, "lon": 49.1466101, "source": "kazan"}, {"address": "г. Казань ул. вишневского д. 51/1", "lat": 55.7841567, "lon": 49.1507214, "source": "kazan"}, {"address": "г. Казань ул. декабристов д. 131/д", "lat": 55.828263, "lon": 49.081288, "source": "kazan"}, {"address": "г. Казань ул. мамадышский тракт д. 50", "lat": 55.8019213, "lon": 49.278448, "source": "kazan"}, {"address": "г. Казань ул. академика парина д. 6", "lat": 55.7461109, "lon": 49.1899185, "source": "kazan"}, {"address": "г. Казань ул. белинского д. 5", "lat": 55.8538387, "lon": 49.0799535, "source": "kazan"}, {"address": "г. Казань ул. декабристов д. 83", "lat": 55.816662, "lon": 49.091152, "source": "kazan"}, {"address": "г. Казань ул. рихарда зорге д. 97", "lat": 55.7444321, "lon": 49.219799, "source": "kazan"}, {"address": "г. Казань ул. уртак (алтан) д. 1", "lat": 55.7454957, "lon": 49.2352882, "source": "kazan"}, {"address": "г. Казань ул. хусаина мавлютова д. 29", "lat": 55.7480013, "lon": 49.1912113, "source": "kazan"}, {"address": "г. Казань ул. закиева д. 10", "lat": 55.775476, "lon": 49.230027, "source": "kazan"}, {"address": "г. Казань ул. комиссара габишева д. 32", "lat": 55.75152, "lon": 49.24259, "source": "kazan"}, {"address": "г. Казань ул. ибрагимова пр-кт д. 12", "lat": 55.8390255, "lon": 49.0868234, "source": "kazan"}, {"address": "г. Казань ул. нурсултана назарбаева (быв. эсперанто) д. 12/в-", "lat": 55.7755214, "lon": 49.1407572, "source": "kazan"}, {"address": "г. Казань ул. спартаковская д. 12", "lat": 55.7783764, "lon": 49.1315739, "source": "kazan"}, {"address": "г. Казань ул. галиаскара камала д. 41", "lat": 55.7811816, "lon": 49.1053713, "source": "kazan"}, {"address": "г. Казань ул. галиаскара камала д. 41", "lat": 55.7811816, "lon": 49.1053713, "source": "kazan"}, {"address": "г. Казань ул. абсалямова д. 19", "lat": 55.8198516, "lon": 49.1090916, "source": "kazan"}, {"address": "г. Казань ул. абдуллы бичурина д. 13", "lat": 55.8202119, "lon": 49.1266233, "source": "kazan"}, {"address": "г. Казань ул. аделя кутуя д. 82", "lat": 55.7840857, "lon": 49.1838198, "source": "kazan"}, {"address": "г. Казань ул. айрата арсланова ул д. 8/-", "lat": 55.865553, "lon": 48.881586, "source": "kazan"}, {"address": "г. Казань ул. академика сахарова д. 27", "lat": 55.7810618, "lon": 49.2243594, "source": "kazan"}, {"address": "г. Казань ул. гаврилова д. 30", "lat": 55.8369975, "lon": 49.1585532, "source": "kazan"}, {"address": "г. Казань ул. галимджана баруди д. 4/2", "lat": 55.8178399, "lon": 49.0651406, "source": "kazan"}, {"address": "г. Казань ул. гвардейская д. 38", "lat": 55.783722, "lon": 49.170164, "source": "kazan"}, {"address": "г. Казань ул. декабристов д. 85", "lat": 55.818589, "lon": 49.090343, "source": "kazan"}, {"address": "г. Казань ул. жуковского д. 30", "lat": 55.7992646, "lon": 49.1310553, "source": "kazan"}, {"address": "г. Казань ул. зур урам д. 10", "lat": 55.807005, "lon": 49.19762, "source": "kazan"}, {"address": "г. Казань ул. комарова д. 10", "lat": 55.7563465, "lon": 49.1703056, "source": "kazan"}, {"address": "г. Казань ул. комарова д. 14/в", "lat": 55.7553802, "lon": 49.1692465, "source": "kazan"}, {"address": "г. Казань ул. комиссара габишева д. 39", "lat": 55.7574678, "lon": 49.2384027, "source": "kazan"}, {"address": "г. Казань ул. комсомольская д. 2", "lat": 55.81168, "lon": 49.095338, "source": "kazan"}, {"address": "г. Казань ул. лесгафта д. 6/57", "lat": 55.7866891, "lon": 49.1427506, "source": "kazan"}, {"address": "г. Казань ул. маршала чуйкова д. 9", "lat": 55.8363188, "lon": 49.1093321, "source": "kazan"}, {"address": "г. Казань ул. минская д. 12", "lat": 55.772101, "lon": 49.2208638, "source": "kazan"}, {"address": "г. Казань ул. николая ершова д. 62/д/2", "lat": 55.795509, "lon": 49.178811, "source": "kazan"}, {"address": "г. Казань ул. профессора камая д. 10/1", "lat": 55.7491683, "lon": 49.1846694, "source": "kazan"}, {"address": "г. Казань ул. рашида вагапова д. 15/а", "lat": 55.7841604, "lon": 49.2301117, "source": "kazan"}, {"address": "г. Казань ул. рихарда зорге д. 100", "lat": 55.7418136, "lon": 49.2212542, "source": "kazan"}, {"address": "г. Казань ул. рихарда зорге д. 48", "lat": 55.7545302, "lon": 49.1994871, "source": "kazan"}, {"address": "г. Казань ул. универсиады пр-кт д. 10", "lat": 55.7660632, "lon": 49.1574597, "source": "kazan"}, {"address": "г. Казань ул. фатыха амирхана ул д. 71/-", "lat": 55.834471, "lon": 49.132541, "source": "kazan"}, {"address": "г. Казань ул. фатыха амирхана ул д. 97/-", "lat": 55.840434, "lon": 49.132185, "source": "kazan"}, {"address": "г. Казань ул. фрунзе д. 9", "lat": 55.8234139, "lon": 49.0479706, "source": "kazan"}, {"address": "г. Казань ул. челюскина д. 55", "lat": 55.869056, "lon": 49.080543, "source": "kazan"}, {"address": "г. Казань ул. четаева д. 10", "lat": 55.8234305, "lon": 49.145791, "source": "kazan"}, {"address": "г. Казань ул. четаева д. 58/б", "lat": 55.82339, "lon": 49.114895, "source": "kazan"}, {"address": "г. Казань ул. шамиля усманова д. 27", "lat": 55.8304741, "lon": 49.0670935, "source": "kazan"}, {"address": "г. Казань ул. энергетиков д. 12", "lat": 55.8263918, "lon": 49.0769285, "source": "kazan"}, {"address": "г. Казань ул. юго-западная 2-я д. 3", "lat": 55.818079, "lon": 49.0863781, "source": "kazan"}, {"address": "г. Казань ул. юлиуса фучика д. 8", "lat": 55.742895, "lon": 49.202291, "source": "kazan"}, {"address": "г. Казань ул. юлиуса фучика д. 90", "lat": 55.763456, "lon": 49.233286, "source": "kazan"}, {"address": "г. Казань ул. ямашева пр-кт д. 100/г", "lat": 55.827037, "lon": 49.153642, "source": "kazan"}, {"address": "г. Казань ул. маршала чуйкова д. 54/б", "lat": 55.8351331, "lon": 49.1378581, "source": "kazan"}, {"address": "г. Казань ул. гвардейская д. 53", "lat": 55.7723578, "lon": 49.1803668, "source": "kazan"}, {"address": "г. Казань ул. советская д. 271/с", "lat": 55.8026202, "lon": 49.186021, "source": "kazan"}, {"address": "г. Казань ул. агрономическая д. 7", "lat": 55.7764412, "lon": 49.1454137, "source": "kazan"}, {"address": "г. Казань ул. даурская д. 18", "lat": 55.7619567, "lon": 49.1598418, "source": "kazan"}, {"address": "г. Казань ул. декабристов д. 81/1", "lat": 55.818624, "lon": 49.094206, "source": "kazan"}, {"address": "г. Казань ул. декабристов д. 81/2", "lat": 55.818624, "lon": 49.094206, "source": "kazan"}, {"address": "г. Казань ул. декабристов д. 81/в", "lat": 55.818848, "lon": 49.09358, "source": "kazan"}, {"address": "г. Казань ул. декабристов д. 96", "lat": 55.821222, "lon": 49.0905808, "source": "kazan"}, {"address": "г. Казань ул. ибрагимова пр-кт д. 48", "lat": 55.8232672, "lon": 49.0939002, "source": "kazan"}, {"address": "г. Казань ул. мамадышский тракт д. 30", "lat": 55.7970689, "lon": 49.2447434, "source": "kazan"}, {"address": "г. Казань ул. победы пр-кт д. 194", "lat": 55.7949981, "lon": 49.2203443, "source": "kazan"}, {"address": "г. Казань ул. победы пр-кт д. 194/1", "lat": 55.794664, "lon": 49.221605, "source": "kazan"}, {"address": "г. Казань ул. победы пр-кт д. 194/2", "lat": 55.7939007, "lon": 49.2202053, "source": "kazan"}, {"address": "г. Казань ул. победы пр-кт д. 194/3", "lat": 55.7940124, "lon": 49.2210728, "source": "kazan"}, {"address": "г. Казань ул. победы пр-кт д. 93", "lat": 55.768552, "lon": 49.214939, "source": "kazan"}, {"address": "г. Казань ул. победы пр-кт д. 93/1", "lat": 55.768552, "lon": 49.214939, "source": "kazan"}, {"address": "г. Казань ул. академика сахарова д. 24/в", "lat": 55.7828789, "lon": 49.2219262, "source": "kazan"}, {"address": "г. Н.Челны, пр.Набережночелнинский, д.3а", "lat": 55.702681, "lon": 52.329513, "source": "4_chelny"}, {"address": "г. Н.Челны, пр.Сююмбике, д.51", "lat": 55.748813, "lon": 52.400389, "source": "4_chelny"}, {"address": "г. Н.Челны, ул. 1-й комплекс, 1 (Московский Пр-Кт, 153)", "lat": 55.7335758, "lon": 52.3597346, "source": "4_chelny"}, {"address": "г. Н.Челны, ул. 1-й комплекс, 11 / а (Энтузиастов Б-Р, 19 / а)", "lat": 55.745017, "lon": 52.420371, "source": "4_chelny"}, {"address": "г. Н.Челны, ул. 1-й комплекс, 13 (Им Вахитова Пр-Кт, 17)", "lat": 55.745737, "lon": 52.42047, "source": "4_chelny"}, {"address": "г. Н.Челны, ул. 1-й комплекс, 14 (Им Вахитова Пр-Кт, 15)", "lat": 55.7460798, "lon": 52.4207712, "source": "4_chelny"}, {"address": "г. Н.Челны, ул. 1-й комплекс, 15 (Академика Рубаненко, 10)", "lat": 55.7335758, "lon": 52.3597346, "source": "4_chelny"}, {"address": "г. Н.Челны, ул. 1-й комплекс, 9а", "lat": 55.7335758, "lon": 52.3597346, "source": "4_chelny"}, {"address": "г. Н.Челны, ул. 2-й комплекс, 18 (Хасана Туфана Пр-Кт, 12)", "lat": 55.74076, "lon": 52.414622, "source": "4_chelny"}, {"address": "г. Н.Челны, ул. 2-й комплекс, 7 (Хасана Туфана Пр-Кт, 8)", "lat": 55.739129, "lon": 52.417424, "source": "4_chelny"}, {"address": "г. Н.Челны, ул. 3-й комплекс, 1 (Мира Пр-Кт, 52 / 16)", "lat": 55.731526, "lon": 52.358566, "source": "4_chelny"}, {"address": "г. Н.Челны, ул. 3-й комплекс, 1 (Мира Пр-Кт, 52 / 16)", "lat": 55.731526, "lon": 52.358566, "source": "4_chelny"}, {"address": "г. Н.Челны, ул. 3-й комплекс, 1а", "lat": 55.73132, "lon": 52.358517, "source": "4_chelny"}, {"address": "г. Н.Челны, ул. 3-й комплекс, 18 (Академика Рубаненко, 7)", "lat": 55.731526, "lon": 52.358566, "source": "4_chelny"}, {"address": "г. Н.Челны, ул. 4-й комплекс, 3 (Московский Пр-Кт, 105)", "lat": 55.7436283, "lon": 52.3958229, "source": "4_chelny"}, {"address": "г. Н.Челны, ул. 4-й комплекс, 9 (Хасана Туфана Пр-Кт, 5)", "lat": 55.737623, "lon": 52.417146, "source": "4_chelny"}, {"address": "г. Н.Челны, ул. 5-й комплекс, 2а", "lat": 55.727665, "lon": 52.351593, "source": "4_chelny"}, {"address": "г. Н.Челны, ул. 06-й комплекс, 1 (Мира Пр-Кт, 50 / 15)", "lat": 55.740354, "lon": 52.410765, "source": "4_chelny"}, {"address": "г. Н.Челны, ул. 07-й комплекс, 20", "lat": 55.7436283, "lon": 52.3958229, "source": "4_chelny"}, {"address": "г. Н.Челны, ул. 07-й комплекс, 27 / а (Мира Пр-Кт, 34 / а)", "lat": 55.732503, "lon": 52.400209, "source": "4_chelny"}, {"address": "г. Н.Челны, ул. 11-й комплекс, 14 / а (Мира Пр-Кт, 25 / а)", "lat": 55.7315597, "lon": 52.3953863, "source": "4_chelny"}, {"address": "г. Н.Челны, ул. 12-й комплекс, 31", "lat": 55.7436283, "lon": 52.3958229, "source": "4_chelny"}, {"address": "г. Н.Челны, ул. 15-й комплекс, 7", "lat": 55.7436283, "lon": 52.3958229, "source": "4_chelny"}, {"address": "г. Н.Челны, ул. 18-й комплекс, 5", "lat": 55.7436283, "lon": 52.3958229, "source": "4_chelny"}, {"address": "г. Н.Челны, ул. 18-й комплекс, 5а", "lat": 55.7436283, "lon": 52.3958229, "source": "4_chelny"}, {"address": "г. Н.Челны, ул. 28-й комплекс, 8 (Автозаводский Пр-Кт, 29)", "lat": 55.7536763, "lon": 52.4296985, "source": "4_chelny"}, {"address": "г. Н.Челны, ул. 30-й комплекс, 10 (Им Вахитова Пр-Кт, 14)", "lat": 55.745073, "lon": 52.426237, "source": "4_chelny"}, {"address": "г. Н.Челны, ул. 30-й комплекс, 2а", "lat": 55.7436283, "lon": 52.3958229, "source": "4_chelny"}, {"address": "г. Н.Челны, ул. 30-й комплекс, 2а", "lat": 55.7436283, "lon": 52.3958229, "source": "4_chelny"}, {"address": "г. Н.Челны, пр-кт Вахитова, 24А", "lat": 55.7482456, "lon": 52.4206933, "source": "4_chelny"}, {"address": "г. Н.Челны, ул. 30-й комплекс, 4а (Им Вахитова Пр-Кт, 20 / а)", "lat": 55.746978, "lon": 52.422949, "source": "4_chelny"}, {"address": "г. Н.Челны, ул. 30-й комплекс, 5а", "lat": 55.7436283, "lon": 52.3958229, "source": "4_chelny"}, {"address": "г. Н.Челны, ул. 40-й комплекс, 3а (Шамиля Усманова, 25)", "lat": 55.7436283, "lon": 52.3958229, "source": "4_chelny"}, {"address": "г. Н.Челны, ул. 40-й комплекс, 6а (Шамиля Усманова, 31)", "lat": 55.7436283, "lon": 52.3958229, "source": "4_chelny"}, {"address": "г. Н.Челны, ул. 41-й комплекс, 4б", "lat": 55.7436283, "lon": 52.3958229, "source": "4_chelny"}, {"address": "г. Н.Челны, ул. 42-й комплекс, 2 (Хасана Туфана Пр-Кт, 38)", "lat": 55.7456434, "lon": 52.3878265, "source": "4_chelny"}, {"address": "г. Н.Челны, ул. 43-й комплекс, 2 (Хасана Туфана Пр-Кт, 26)", "lat": 55.7447673, "lon": 52.3942082, "source": "4_chelny"}, {"address": "г. Н.Челны, ул. 44-й комплекс, 11 / б (Шамиля Усманова, 85 / б)", "lat": 55.7535037, "lon": 52.3993278, "source": "4_chelny"}, {"address": "г. Н.Челны, ул. 44-й комплекс, 20 / 3", "lat": 55.7436283, "lon": 52.3958229, "source": "4_chelny"}, {"address": "г. Н.Челны, ул. 45-й комплекс, 4 (Сююмбике Пр-Кт, 51)", "lat": 55.748813, "lon": 52.400389, "source": "4_chelny"}, {"address": "г. Н.Челны, ул. 52-й комплекс, 20 / а", "lat": 55.7436283, "lon": 52.3958229, "source": "4_chelny"}, {"address": "г. Н.Челны, ул. 56-й комплекс, 14 (Московский Пр-Кт, 90)", "lat": 55.726193, "lon": 52.400653, "source": "4_chelny"}, {"address": "г. Н.Челны, ул. 8-й комплекс, 32 / а (Им Мусы Джалиля Пр-Кт, 58 / а)", "lat": 55.687086, "lon": 52.306141, "source": "4_chelny"}, {"address": "г. Н.Челны, ул. Вахитова Пр-кт, 13А", "lat": 55.7454852, "lon": 52.4224125, "source": "4_chelny"}, {"address": "г. Н.Челны, ул. Гагарина, 25", "lat": 55.6955766, "lon": 52.3062258, "source": "4_chelny"}, {"address": "г. Н.Челны, ул. Гэс 10, 20 / а (Им Мусы Джалиля Пр-Кт, 88)", "lat": 55.697807, "lon": 52.316364, "source": "4_chelny"}, {"address": "г. Н.Челны, ул. Зяб14, 12 / а (Тан, 231 / а)", "lat": 55.6867369, "lon": 52.3492697, "source": "4_chelny"}, {"address": "г. Н.Челны, ул. Зяб17, 1а", "lat": 55.6967322, "lon": 52.3482258, "source": "4_chelny"}, {"address": "г. Н.Челны, ул. Зяб17, 11 / а", "lat": 55.6967322, "lon": 52.3482258, "source": "4_chelny"}, {"address": "г. Н.Челны, ул. Зяб18, 38 / а (Сармановский Тракт, 48г. Н.Челны, ул. Мира Пр-Кт, 3", "lat": 55.727145, "lon": 52.390693, "source": "4_chelny"}, {"address": "г. Н.Челны, ул. Мира Пр-Кт, 3", "lat": 55.724872, "lon": 52.380955, "source": "4_chelny"}, {"address": "г. Н.Челны, ул. Мира Пр-Кт, 31 / а/1", "lat": 55.732373, "lon": 52.396889, "source": "4_chelny"}, {"address": "г. Н.Челны, ул. Мира Пр-Кт, 31 / а/1", "lat": 55.732373, "lon": 52.396889, "source": "4_chelny"}, {"address": "г. Н.Челны, ул. Мира Пр-Кт, 50 / а", "lat": 55.7402109, "lon": 52.4078553, "source": "4_chelny"}, {"address": "г. Н.Челны, ул. Московский Пр-Кт, 136", "lat": 55.745109, "lon": 52.438113, "source": "4_chelny"}, {"address": "г. Н.Челны, ул. Набережночелнинский Пр-Кт, 62", "lat": 55.71738, "lon": 52.37165, "source": "4_chelny"}, {"address": "г. Н.Челны, ул. Сююмбике Пр-Кт, 2 / 19", "lat": 55.7306805, "lon": 52.3924479, "source": "4_chelny"}, {"address": "г. Н.Челны, ул. Чулман Пр-Кт, 65", "lat": 55.741637, "lon": 52.379381, "source": "4_chelny"}, {"address": "г. Н.Челны, ул. Чулман Пр-Кт, 65", "lat": 55.741637, "lon": 52.379381, "source": "4_chelny"}, {"address": "г. Н.Челны, ул. Чулман Пр-Кт, 65", "lat": 55.741637, "lon": 52.379381, "source": "4_chelny"}, {"address": "г. Н.Челны, ул. Ш.Усманова, д.28а (40/06а)", "lat": 55.733513, "lon": 52.38722, "source": "4_chelny"}, {"address": "г. Н.Челны, ул. Яшьлек Пр-Кт, 14", "lat": 55.761801, "lon": 52.453267, "source": "4_chelny"}, {"address": "г. Н.Челны, пр.Сююмбике, д.33 (14/06)", "lat": 55.7416748, "lon": 52.3929744, "source": "4_chelny"}, {"address": "г. Н.Челны, ул. 2-й комплекс, 16", "lat": 55.733288, "lon": 52.361503, "source": "4_chelny"}, {"address": "г. Н.Челны, ул. 12-й комплекс, 12 / а", "lat": 55.7436283, "lon": 52.3958229, "source": "4_chelny"}, {"address": "г. Н.Челны, ул. 22-й комплекс, 15 (Татарстан, 9)", "lat": 55.7436283, "lon": 52.3958229, "source": "4_chelny"}, {"address": "г. Н.Челны, ул. 52 А, 3", "lat": 55.7436283, "lon": 52.3958229, "source": "4_chelny"}, {"address": "г. Н.Челны, ул. Академика Рубаненко, д.12 (НГ 1/16)", "lat": 55.746129, "lon": 52.416579, "source": "4_chelny"}, {"address": "г. Н.Челны, ул. Гидростроителей, д.18A", "lat": 55.6864647, "lon": 52.2949936, "source": "4_chelny"}, {"address": "г. Н.Челны, ул. Казанский Пр-Кт, 30", "lat": 55.68028, "lon": 52.280737, "source": "4_chelny"}, {"address": "г. Н.Челны, ул. 1-й комплекс, 2", "lat": 55.7335758, "lon": 52.3597346, "source": "4_chelny"}, {"address": "г. Н.Челны, ул. 3-й комплекс, 2", "lat": 55.731526, "lon": 52.358566, "source": "4_chelny"}, {"address": "г. Н.Челны, ул. 07-й комплекс, 20 / п (Мира Пр-Кт, 24 / п)", "lat": 55.732546, "lon": 52.399811, "source": "4_chelny"}, {"address": "г. Н.Челны, ул. 17-й комплекс, 14 (Мира Пр-Кт, 59)", "lat": 55.745252, "lon": 52.409487, "source": "4_chelny"}, {"address": "г. Н.Челны, ул. 20-й комплекс, 7а", "lat": 55.7436283, "lon": 52.3958229, "source": "4_chelny"}, {"address": "г. Н.Челны, ул. 22-й комплекс, 4", "lat": 55.7436283, "lon": 52.3958229, "source": "4_chelny"}, {"address": "г. Н.Челны, ул. 59-й комплекс, 23 (Кол Гали Б-Р, 15)", "lat": 55.7187613, "lon": 52.3934713, "source": "4_chelny"}, {"address": "г. Н.Челны, ул. Зяб17а, 1 (Набережночелнинский Пр-Кт, 7)", "lat": 55.702723, "lon": 52.326919, "source": "4_chelny"}, {"address": "г. Н.Челны, пр.Мира, д.17а", "lat": 55.7288633, "lon": 52.3876834, "source": "4_chelny"}, {"address": "г. Н.Челны, пр.Мира, д.17б", "lat": 55.7286921, "lon": 52.3880458, "source": "4_chelny"}, {"address": "г. Н.Челны, пр.Мира, д.17в", "lat": 55.729089, "lon": 52.388608, "source": "4_chelny"}, {"address": "г. Н.Челны, пр.Мира, д.17г", "lat": 55.72936, "lon": 52.388559, "source": "4_chelny"}, {"address": "г. Н.Челны, пр.Набережночелнинский, д.24", "lat": 55.703451, "lon": 52.348178, "source": "4_chelny"}, {"address": "г. Н.Челны, ул. Беляева, д.7/97", "lat": 55.737502, "lon": 52.396799, "source": "4_chelny"}, {"address": "г. Н.Челны, ул. Низаметдинова, д.1б", "lat": 55.7037656, "lon": 52.3456973, "source": "4_chelny"}, {"address": "г. Н.Челны, б-р Ямашева, д.33 (ГЭС 9/10)", "lat": 55.6916495, "lon": 52.3019068, "source": "4_chelny"}, {"address": "г. Н.Челны, пр.Мира, д.68/19 (1/18)", "lat": 55.748039, "lon": 52.417431, "source": "4_chelny"}, {"address": "г. Н.Челны, пр.Мира, жилой район XVIA корпус V", "lat": 55.745098, "lon": 52.411362, "source": "4_chelny"}, {"address": "г. Н.Челны, пр.Мира, жилой район XVIA корпус VI", "lat": 55.745098, "lon": 52.411362, "source": "4_chelny"}, {"address": "г. Н.Челны, пр.Мира, жилой район XVIA корпус VII", "lat": 55.745098, "lon": 52.411362, "source": "4_chelny"}, {"address": "г. Н.Челны, пр.Московский, д.95", "lat": 55.730928, "lon": 52.405674, "source": "4_chelny"}, {"address": "г. Н.Челны, пр.Набережночелнинский, д.54, под.12", "lat": 55.7164847, "lon": 52.3698504, "source": "4_chelny"}, {"address": "г. Н.Челны, пр.Сююмбике, д.10а", "lat": 55.734996, "lon": 52.394444, "source": "4_chelny"}, {"address": "г. Н.Челны, ул. 1-й комплекс, 16 (Академика Рубаненко, 12)", "lat": 55.7335758, "lon": 52.3597346, "source": "4_chelny"}, {"address": "г. Н.Челны, ул. 2-й комплекс, 18 (Хасана Туфана Пр-Кт, 12)", "lat": 55.74076, "lon": 52.414622, "source": "4_chelny"}, {"address": "г. Н.Челны, ул. 18-й комплекс, 8 (Школьный Б-Р, 8)", "lat": 55.748232, "lon": 52.409272, "source": "4_chelny"}, {"address": "г. Н.Челны, ул. 18-й комплекс, 9 (Школьный Б-Р, 2)", "lat": 55.746858, "lon": 52.409836, "source": "4_chelny"}, {"address": "г. Н.Челны, ул. 25-й комплекс, 14 (Татарстан, 10)", "lat": 55.7436283, "lon": 52.3958229, "source": "4_chelny"}, {"address": "г. Н.Челны, ул. 28-й комплекс, 16 (Мира Пр-Кт, 76)", "lat": 55.750183, "lon": 52.423578, "source": "4_chelny"}, {"address": "г. Н.Челны, ул. 39-й комплекс, 17 (Касимова Б-Р, 3)", "lat": 55.734895, "lon": 52.373172, "source": "4_chelny"}, {"address": "г. Н.Челны, ул. 48-й комплекс, 14 (Чулман Пр-Кт, 112)", "lat": 55.7689129, "lon": 52.4209531, "source": "4_chelny"}, {"address": "г. Н.Челны, ул. 50 Комплекс, 18 / а (Шамиля Усманова,139)", "lat": 55.7756741, "lon": 52.4329712, "source": "4_chelny"}, {"address": "г. Н.Челны, ул. 56-й комплекс, 4 (Раиса Беляева Пр-Кт, 3)", "lat": 55.728459, "lon": 52.411532, "source": "4_chelny"}, {"address": "г. Н.Челны, ул. Академика Королева, 1а", "lat": 55.7171174, "lon": 52.3881325, "source": "4_chelny"}, {"address": "г. Н.Челны, ул. Беляева, д.3", "lat": 55.728459, "lon": 52.411532, "source": "4_chelny"}, {"address": "г. Н.Челны, ул. Железнодорожников, д.16", "lat": 55.696021, "lon": 52.3603296, "source": "4_chelny"}, {"address": "г. Н.Челны, ул. Мелиораторная, 8 / 1", "lat": 55.6559468, "lon": 52.3392094, "source": "4_chelny"}, {"address": "г. Н.Челны, ул. Моторная, 308", "lat": 55.730352, "lon": 52.49939, "source": "4_chelny"}, {"address": "г. Н.Челны, ул. Низаметдинова, д.28", "lat": 55.7035297, "lon": 52.3456353, "source": "4_chelny"}, {"address": "г. Н.Челны, ул. Орловская, 7", "lat": 55.7166327, "lon": 52.3745033, "source": "4_chelny"}, {"address": "г. Н.Челны, ул. Программистов, 320", "lat": 55.7436283, "lon": 52.3958229, "source": "4_chelny"}, {"address": "г. Н.Челны, ул. Студенческая, д.21", "lat": 55.690706, "lon": 52.297738, "source": "4_chelny"}, {"address": "г. Н.Челны, пр.Автозаводский, д.1", "lat": 55.7455038, "lon": 52.4435286, "source": "4_chelny"}, {"address": "г. Н.Челны, пр.Мира, д.24Е (7/20)", "lat": 55.730882, "lon": 52.396657, "source": "4_chelny"}, {"address": "г. Н.Челны, Сююмбике Пр-Кт, 2 / 19", "lat": 55.7306805, "lon": 52.3924479, "source": "4_chelny"},